{
"type": "FeatureCollection",
"name": "locality_point",
"crs": { "type": "name", "properties": { "name": "urn:ogc:def:crs:OGC:1.3:CRS84" } },
"features": [
{ "type": "Feature", "properties": { "UFI": 60272, "PFI": 1602, "NAME_ID": 100399, "PLACE_NAME": "BLACK ROCK", "PLACELABEL": "Black Rock", "FTYPE_CODE": "place", "FEATSUBTYP": "locality bounded", "HIERARCHY": 8, "STATE": "VIC", "SCALE_USEC": "6", "PFI_CR": "2010-01-01", "UFI_CR": "2011-08-11" }, "geometry": { "type": "Point", "coordinates": [ 145.025846907995259, -37.977114843000074 ] } },
{ "type": "Feature", "properties": { "UFI": 60275, "PFI": 1605, "NAME_ID": 100400, "PLACE_NAME": "BLACKBURN", "PLACELABEL": "Blackburn", "FTYPE_CODE": "place", "FEATSUBTYP": "locality bounded", "HIERARCHY": 8, "STATE": "VIC", "SCALE_USEC": "6", "PFI_CR": "2010-01-01", "UFI_CR": "2011-08-11" }, "geometry": { "type": "Point", "coordinates": [ 145.151450902996658, -37.825953850000026 ] } },
{ "type": "Feature", "properties": { "UFI": 60276, "PFI": 1606, "NAME_ID": 100401, "PLACE_NAME": "BLACKBURN NORTH", "PLACELABEL": "Blackburn North", "FTYPE_CODE": "place", "FEATSUBTYP": "locality bounded", "HIERARCHY": 8, "STATE": "VIC", "SCALE_USEC": "6", "PFI_CR": "2010-01-01", "UFI_CR": "2011-08-11" }, "geometry": { "type": "Point", "coordinates": [ 145.154125903996629, -37.809773851 ] } },
{ "type": "Feature", "properties": { "UFI": 60277, "PFI": 1607, "NAME_ID": 100402, "PLACE_NAME": "BLACKBURN SOUTH", "PLACELABEL": "Blackburn South", "FTYPE_CODE": "place", "FEATSUBTYP": "locality bounded", "HIERARCHY": 8, "STATE": "VIC", "SCALE_USEC": "6", "PFI_CR": "2010-01-01", "UFI_CR": "2011-08-11" }, "geometry": { "type": "Point", "coordinates": [ 145.144342902996584, -37.83755785 ] } },
{ "type": "Feature", "properties": { "UFI": 60330, "PFI": 1660, "NAME_ID": 100468, "PLACE_NAME": "BOX HILL", "PLACELABEL": "Box Hill", "FTYPE_CODE": "place", "FEATSUBTYP": "locality bounded", "HIERARCHY": 6, "STATE": "VIC", "SCALE_USEC": "4", "PFI_CR": "2010-01-01", "UFI_CR": "2011-08-11" }, "geometry": { "type": "Point", "coordinates": [ 145.125442907996415, -37.821036849 ] } },
{ "type": "Feature", "properties": { "UFI": 60339, "PFI": 1669, "NAME_ID": 100480, "PLACE_NAME": "BRAYBROOK", "PLACELABEL": "Braybrook", "FTYPE_CODE": "place", "FEATSUBTYP": "locality bounded", "HIERARCHY": 8, "STATE": "VIC", "SCALE_USEC": "6", "PFI_CR": "2010-01-01", "UFI_CR": "2011-08-11" }, "geometry": { "type": "Point", "coordinates": [ 144.856080957992674, -37.785799830000073 ] } },
{ "type": "Feature", "properties": { "UFI": 60348, "PFI": 1678, "NAME_ID": 100496, "PLACE_NAME": "BRIGHTON", "PLACELABEL": "Brighton", "FTYPE_CODE": "place", "FEATSUBTYP": "locality bounded", "HIERARCHY": 7, "STATE": "VIC", "SCALE_USEC": "5", "PFI_CR": "2010-01-01", "UFI_CR": "2011-08-11" }, "geometry": { "type": "Point", "coordinates": [ 144.99572191999485, -37.912621840000014 ] } },
{ "type": "Feature", "properties": { "UFI": 60362, "PFI": 1692, "NAME_ID": 100513, "PLACE_NAME": "BROOKFIELD", "PLACELABEL": "Brookfield", "FTYPE_CODE": "place", "FEATSUBTYP": "locality bounded", "HIERARCHY": 8, "STATE": "VIC", "SCALE_USEC": "6", "PFI_CR": "2010-01-01", "UFI_CR": "2011-08-11" }, "geometry": { "type": "Point", "coordinates": [ 144.54742770398471, -37.699271092000188 ] } },
{ "type": "Feature", "properties": { "UFI": 60367, "PFI": 1697, "NAME_ID": 3581, "PLACE_NAME": "BROPHYS CROSSING", "PLACELABEL": "Brophys Crossing", "FTYPE_CODE": "place", "FEATSUBTYP": "locality unbounded", "HIERARCHY": 8, "STATE": "VIC", "SCALE_USEC": "6", "PFI_CR": "2010-01-01", "UFI_CR": "2011-08-11" }, "geometry": { "type": "Point", "coordinates": [ 144.641138982987627, -37.903341816000193 ] } },
{ "type": "Feature", "properties": { "UFI": 60374, "PFI": 1704, "NAME_ID": 100526, "PLACE_NAME": "BRUNSWICK", "PLACELABEL": "Brunswick", "FTYPE_CODE": "place", "FEATSUBTYP": "locality bounded", "HIERARCHY": 7, "STATE": "VIC", "SCALE_USEC": "5", "PFI_CR": "2010-01-01", "UFI_CR": "2011-08-11" }, "geometry": { "type": "Point", "coordinates": [ 144.961064941994408, -37.766937837 ] } },
{ "type": "Feature", "properties": { "UFI": 60375, "PFI": 1705, "NAME_ID": 100528, "PLACE_NAME": "BRUNSWICK WEST", "PLACELABEL": "Brunswick West", "FTYPE_CODE": "place", "FEATSUBTYP": "locality bounded", "HIERARCHY": 8, "STATE": "VIC", "SCALE_USEC": "6", "PFI_CR": "2010-01-01", "UFI_CR": "2011-08-11" }, "geometry": { "type": "Point", "coordinates": [ 144.943059945994094, -37.761216836000024 ] } },
{ "type": "Feature", "properties": { "UFI": 60379, "PFI": 1709, "NAME_ID": 100311, "PLACE_NAME": "BEACONSFIELD", "PLACELABEL": "Beaconsfield", "FTYPE_CODE": "place", "FEATSUBTYP": "locality bounded", "HIERARCHY": 7, "STATE": "VIC", "SCALE_USEC": "5", "PFI_CR": "2010-01-01", "UFI_CR": "2011-08-11" }, "geometry": { "type": "Point", "coordinates": [ 145.369216839998245, -38.049066867000036 ] } },
{ "type": "Feature", "properties": { "UFI": 60380, "PFI": 1710, "NAME_ID": 100313, "PLACE_NAME": "BEACONSFIELD UPPER", "PLACELABEL": "Beaconsfield Upper", "FTYPE_CODE": "place", "FEATSUBTYP": "locality bounded", "HIERARCHY": 8, "STATE": "VIC", "SCALE_USEC": "6", "PFI_CR": "2010-01-01", "UFI_CR": "2011-08-11" }, "geometry": { "type": "Point", "coordinates": [ 145.410047837998519, -38.005466870000035 ] } },
{ "type": "Feature", "properties": { "UFI": 60386, "PFI": 1716, "NAME_ID": 100321, "PLACE_NAME": "BEAUMARIS", "PLACELABEL": "Beaumaris", "FTYPE_CODE": "place", "FEATSUBTYP": "locality bounded", "HIERARCHY": 8, "STATE": "VIC", "SCALE_USEC": "6", "PFI_CR": "2010-01-01", "UFI_CR": "2011-08-11" }, "geometry": { "type": "Point", "coordinates": [ 145.042771903995543, -37.982804844000022 ] } },
{ "type": "Feature", "properties": { "UFI": 60389, "PFI": 1719, "NAME_ID": 100118, "PLACE_NAME": "ABBOTSFORD", "PLACELABEL": "Abbotsford", "FTYPE_CODE": "place", "FEATSUBTYP": "locality bounded", "HIERARCHY": 8, "STATE": "VIC", "SCALE_USEC": "6", "PFI_CR": "2010-01-01", "UFI_CR": "2011-08-11" }, "geometry": { "type": "Point", "coordinates": [ 145.002102930994965, -37.802786840000024 ] } },
{ "type": "Feature", "properties": { "UFI": 60398, "PFI": 1728, "NAME_ID": 100130, "PLACE_NAME": "AIRPORT WEST", "PLACELABEL": "Airport West", "FTYPE_CODE": "place", "FEATSUBTYP": "locality bounded", "HIERARCHY": 8, "STATE": "VIC", "SCALE_USEC": "6", "PFI_CR": "2010-01-01", "UFI_CR": "2011-08-11" }, "geometry": { "type": "Point", "coordinates": [ 144.884961958993159, -37.728646832000074 ] } },
{ "type": "Feature", "properties": { "UFI": 59693, "PFI": 1023, "NAME_ID": 100962, "PLACE_NAME": "DERRIMUT", "PLACELABEL": "Derrimut", "FTYPE_CODE": "place", "FEATSUBTYP": "locality bounded", "HIERARCHY": 7, "STATE": "VIC", "SCALE_USEC": "5", "PFI_CR": "2010-01-01", "UFI_CR": "2011-08-11" }, "geometry": { "type": "Point", "coordinates": [ 144.772252904990921, -37.797122616000095 ] } },
{ "type": "Feature", "properties": { "UFI": 59700, "PFI": 1030, "NAME_ID": 100971, "PLACE_NAME": "DIAMOND CREEK", "PLACELABEL": "Diamond Creek", "FTYPE_CODE": "place", "FEATSUBTYP": "locality bounded", "HIERARCHY": 7, "STATE": "VIC", "SCALE_USEC": "5", "PFI_CR": "2010-01-01", "UFI_CR": "2011-08-11" }, "geometry": { "type": "Point", "coordinates": [ 145.155302918996682, -37.671004850000017 ] } },
{ "type": "Feature", "properties": { "UFI": 59704, "PFI": 1034, "NAME_ID": 100974, "PLACE_NAME": "DIGGERS REST", "PLACELABEL": "Diggers Rest", "FTYPE_CODE": "place", "FEATSUBTYP": "locality bounded", "HIERARCHY": 7, "STATE": "VIC", "SCALE_USEC": "5", "PFI_CR": "2010-01-01", "UFI_CR": "2011-08-11" }, "geometry": { "type": "Point", "coordinates": [ 144.720115998989741, -37.628246820000079 ] } },
{ "type": "Feature", "properties": { "UFI": 59707, "PFI": 1037, "NAME_ID": 100978, "PLACE_NAME": "DINGLEY VILLAGE", "PLACELABEL": "Dingley Village", "FTYPE_CODE": "place", "FEATSUBTYP": "locality bounded", "HIERARCHY": 8, "STATE": "VIC", "SCALE_USEC": "6", "PFI_CR": "2010-01-01", "UFI_CR": "2011-08-11" }, "geometry": { "type": "Point", "coordinates": [ 145.118662024996325, -37.973776157000053 ] } },
{ "type": "Feature", "properties": { "UFI": 59717, "PFI": 1047, "NAME_ID": 100989, "PLACE_NAME": "DON VALLEY", "PLACELABEL": "Don Valley", "FTYPE_CODE": "place", "FEATSUBTYP": "locality bounded", "HIERARCHY": 8, "STATE": "VIC", "SCALE_USEC": "6", "PFI_CR": "2010-01-01", "UFI_CR": "2011-08-11" }, "geometry": { "type": "Point", "coordinates": [ 145.58443183499918, -37.76165788 ] } },
{ "type": "Feature", "properties": { "UFI": 59718, "PFI": 1048, "NAME_ID": 100991, "PLACE_NAME": "DONCASTER", "PLACELABEL": "Doncaster", "FTYPE_CODE": "place", "FEATSUBTYP": "locality bounded", "HIERARCHY": 7, "STATE": "VIC", "SCALE_USEC": "5", "PFI_CR": "2010-01-01", "UFI_CR": "2011-08-11" }, "geometry": { "type": "Point", "coordinates": [ 145.124038911996365, -37.786768848 ] } },
{ "type": "Feature", "properties": { "UFI": 59719, "PFI": 1049, "NAME_ID": 100992, "PLACE_NAME": "DONCASTER EAST", "PLACELABEL": "Doncaster East", "FTYPE_CODE": "place", "FEATSUBTYP": "locality bounded", "HIERARCHY": 8, "STATE": "VIC", "SCALE_USEC": "6", "PFI_CR": "2010-01-01", "UFI_CR": "2011-08-11" }, "geometry": { "type": "Point", "coordinates": [ 145.156934905996678, -37.788188851000029 ] } },
{ "type": "Feature", "properties": { "UFI": 59720, "PFI": 1050, "NAME_ID": 100993, "PLACE_NAME": "DONNYBROOK", "PLACELABEL": "Donnybrook", "FTYPE_CODE": "place", "FEATSUBTYP": "locality bounded", "HIERARCHY": 8, "STATE": "VIC", "SCALE_USEC": "6", "PFI_CR": "2010-01-01", "UFI_CR": "2011-08-11" }, "geometry": { "type": "Point", "coordinates": [ 144.969454964994469, -37.542682836000026 ] } },
{ "type": "Feature", "properties": { "UFI": 59721, "PFI": 1051, "NAME_ID": 100994, "PLACE_NAME": "DONVALE", "PLACELABEL": "Donvale", "FTYPE_CODE": "place", "FEATSUBTYP": "locality bounded", "HIERARCHY": 8, "STATE": "VIC", "SCALE_USEC": "6", "PFI_CR": "2010-01-01", "UFI_CR": "2011-08-11" }, "geometry": { "type": "Point", "coordinates": [ 145.174874901996873, -37.797480852000028 ] } },
{ "type": "Feature", "properties": { "UFI": 59762, "PFI": 1092, "NAME_ID": 8149, "PLACE_NAME": "EAGLE NEST", "PLACELABEL": "Eagle Nest", "FTYPE_CODE": "place", "FEATSUBTYP": "locality unbounded", "HIERARCHY": 8, "STATE": "VIC", "SCALE_USEC": "6", "PFI_CR": "2010-01-01", "UFI_CR": "2011-08-11" }, "geometry": { "type": "Point", "coordinates": [ 145.255765915997586, -37.544557856000026 ] } },
{ "type": "Feature", "properties": { "UFI": 59763, "PFI": 1093, "NAME_ID": 101058, "PLACE_NAME": "EAGLEMONT", "PLACELABEL": "Eaglemont", "FTYPE_CODE": "place", "FEATSUBTYP": "locality bounded", "HIERARCHY": 8, "STATE": "VIC", "SCALE_USEC": "6", "PFI_CR": "2010-01-01", "UFI_CR": "2011-08-11" }, "geometry": { "type": "Point", "coordinates": [ 145.0656019239957, -37.763293844000039 ] } },
{ "type": "Feature", "properties": { "UFI": 59777, "PFI": 1107, "NAME_ID": 101084, "PLACE_NAME": "EDITHVALE", "PLACELABEL": "Edithvale", "FTYPE_CODE": "place", "FEATSUBTYP": "locality bounded", "HIERARCHY": 8, "STATE": "VIC", "SCALE_USEC": "6", "PFI_CR": "2010-01-01", "UFI_CR": "2011-08-11" }, "geometry": { "type": "Point", "coordinates": [ 145.113108885996297, -38.037122849000042 ] } },
{ "type": "Feature", "properties": { "UFI": 59789, "PFI": 1119, "NAME_ID": 101103, "PLACE_NAME": "ELTHAM", "PLACELABEL": "Eltham", "FTYPE_CODE": "place", "FEATSUBTYP": "locality bounded", "HIERARCHY": 7, "STATE": "VIC", "SCALE_USEC": "5", "PFI_CR": "2010-01-01", "UFI_CR": "2011-08-11" }, "geometry": { "type": "Point", "coordinates": [ 145.147313914996602, -37.718644848999972 ] } },
{ "type": "Feature", "properties": { "UFI": 59790, "PFI": 1120, "NAME_ID": 101106, "PLACE_NAME": "ELWOOD", "PLACELABEL": "Elwood", "FTYPE_CODE": "place", "FEATSUBTYP": "locality bounded", "HIERARCHY": 8, "STATE": "VIC", "SCALE_USEC": "6", "PFI_CR": "2010-01-01", "UFI_CR": "2011-08-11" }, "geometry": { "type": "Point", "coordinates": [ 144.986275924994743, -37.883623839000016 ] } },
{ "type": "Feature", "properties": { "UFI": 59791, "PFI": 1121, "NAME_ID": 101107, "PLACE_NAME": "EMERALD", "PLACELABEL": "Emerald", "FTYPE_CODE": "place", "FEATSUBTYP": "locality bounded", "HIERARCHY": 7, "STATE": "VIC", "SCALE_USEC": "5", "PFI_CR": "2010-01-01", "UFI_CR": "2011-08-11" }, "geometry": { "type": "Point", "coordinates": [ 145.436646840998662, -37.932825871000041 ] } },
{ "type": "Feature", "properties": { "UFI": 59794, "PFI": 1124, "NAME_ID": 101113, "PLACE_NAME": "ENDEAVOUR HILLS", "PLACELABEL": "Endeavour Hills", "FTYPE_CODE": "place", "FEATSUBTYP": "locality bounded", "HIERARCHY": 8, "STATE": "VIC", "SCALE_USEC": "6", "PFI_CR": "2010-01-01", "UFI_CR": "2011-08-11" }, "geometry": { "type": "Point", "coordinates": [ 145.252405867997567, -37.977094858 ] } },
{ "type": "Feature", "properties": { "UFI": 59805, "PFI": 1135, "NAME_ID": 101127, "PLACE_NAME": "ESSENDON", "PLACELABEL": "Essendon", "FTYPE_CODE": "place", "FEATSUBTYP": "locality bounded", "HIERARCHY": 7, "STATE": "VIC", "SCALE_USEC": "5", "PFI_CR": "2010-01-01", "UFI_CR": "2011-08-11" }, "geometry": { "type": "Point", "coordinates": [ 144.909276952993508, -37.751610833000058 ] } },
{ "type": "Feature", "properties": { "UFI": 59806, "PFI": 1136, "NAME_ID": 101128, "PLACE_NAME": "ESSENDON NORTH", "PLACELABEL": "Essendon North", "FTYPE_CODE": "place", "FEATSUBTYP": "locality bounded", "HIERARCHY": 8, "STATE": "VIC", "SCALE_USEC": "6", "PFI_CR": "2010-01-01", "UFI_CR": "2011-08-11" }, "geometry": { "type": "Point", "coordinates": [ 144.893232439993227, -37.737115090000053 ] } },
{ "type": "Feature", "properties": { "UFI": 59835, "PFI": 1165, "NAME_ID": 101166, "PLACE_NAME": "FERNY CREEK", "PLACELABEL": "Ferny Creek", "FTYPE_CODE": "place", "FEATSUBTYP": "locality bounded", "HIERARCHY": 8, "STATE": "VIC", "SCALE_USEC": "6", "PFI_CR": "2010-01-01", "UFI_CR": "2011-08-11" }, "geometry": { "type": "Point", "coordinates": [ 145.335470864998058, -37.878265864000014 ] } },
{ "type": "Feature", "properties": { "UFI": 59837, "PFI": 1167, "NAME_ID": 9033, "PLACE_NAME": "FIELDER", "PLACELABEL": "Fielder", "FTYPE_CODE": "place", "FEATSUBTYP": "locality unbounded", "HIERARCHY": 8, "STATE": "VIC", "SCALE_USEC": "6", "PFI_CR": "2010-01-01", "UFI_CR": "2011-08-11" }, "geometry": { "type": "Point", "coordinates": [ 145.505781827998931, -37.946341876000041 ] } },
{ "type": "Feature", "properties": { "UFI": 59843, "PFI": 1173, "NAME_ID": 101172, "PLACE_NAME": "FITZROY", "PLACELABEL": "Fitzroy", "FTYPE_CODE": "place", "FEATSUBTYP": "locality bounded", "HIERARCHY": 8, "STATE": "VIC", "SCALE_USEC": "6", "PFI_CR": "2010-01-01", "UFI_CR": "2011-08-11" }, "geometry": { "type": "Point", "coordinates": [ 144.979447934994624, -37.800597838 ] } },
{ "type": "Feature", "properties": { "UFI": 59844, "PFI": 1174, "NAME_ID": 101174, "PLACE_NAME": "FITZROY NORTH", "PLACELABEL": "Fitzroy North", "FTYPE_CODE": "place", "FEATSUBTYP": "locality bounded", "HIERARCHY": 8, "STATE": "VIC", "SCALE_USEC": "6", "PFI_CR": "2010-01-01", "UFI_CR": "2011-08-11" }, "geometry": { "type": "Point", "coordinates": [ 144.982109935994629, -37.786224839000013 ] } },
{ "type": "Feature", "properties": { "UFI": 59847, "PFI": 1177, "NAME_ID": 101178, "PLACE_NAME": "FLEMINGTON", "PLACELABEL": "Flemington", "FTYPE_CODE": "place", "FEATSUBTYP": "locality bounded", "HIERARCHY": 8, "STATE": "VIC", "SCALE_USEC": "6", "PFI_CR": "2010-01-01", "UFI_CR": "2011-08-11" }, "geometry": { "type": "Point", "coordinates": [ 144.928567519993891, -37.787583427000044 ] } },
{ "type": "Feature", "properties": { "UFI": 59856, "PFI": 1186, "NAME_ID": 100750, "PLACE_NAME": "CHRISTMAS HILLS", "PLACELABEL": "Christmas Hills", "FTYPE_CODE": "place", "FEATSUBTYP": "locality bounded", "HIERARCHY": 7, "STATE": "VIC", "SCALE_USEC": "5", "PFI_CR": "2010-01-01", "UFI_CR": "2011-08-11" }, "geometry": { "type": "Point", "coordinates": [ 145.320176892997978, -37.650037860999973 ] } },
{ "type": "Feature", "properties": { "UFI": 59864, "PFI": 1194, "NAME_ID": 5583, "PLACE_NAME": "CLAYTON NORTH", "PLACELABEL": "Clayton North", "FTYPE_CODE": "place", "FEATSUBTYP": "locality unbounded", "HIERARCHY": 8, "STATE": "VIC", "SCALE_USEC": "6", "PFI_CR": "2010-01-01", "UFI_CR": "2011-08-11" }, "geometry": { "type": "Point", "coordinates": [ 145.12327289899639, -37.906614848999986 ] } },
{ "type": "Feature", "properties": { "UFI": 59865, "PFI": 1195, "NAME_ID": 100762, "PLACE_NAME": "CLAYTON SOUTH", "PLACELABEL": "Clayton South", "FTYPE_CODE": "place", "FEATSUBTYP": "locality bounded", "HIERARCHY": 8, "STATE": "VIC", "SCALE_USEC": "6", "PFI_CR": "2010-01-01", "UFI_CR": "2011-08-11" }, "geometry": { "type": "Point", "coordinates": [ 145.1233798939964, -37.947169849000041 ] } },
{ "type": "Feature", "properties": { "UFI": 59868, "PFI": 1198, "NAME_ID": 100767, "PLACE_NAME": "CLIFTON HILL", "PLACELABEL": "Clifton Hill", "FTYPE_CODE": "place", "FEATSUBTYP": "locality bounded", "HIERARCHY": 8, "STATE": "VIC", "SCALE_USEC": "6", "PFI_CR": "2010-01-01", "UFI_CR": "2011-08-11" }, "geometry": { "type": "Point", "coordinates": [ 144.999061932994977, -37.789217840000013 ] } },
{ "type": "Feature", "properties": { "UFI": 59877, "PFI": 1207, "NAME_ID": 100776, "PLACE_NAME": "CLYDE NORTH", "PLACELABEL": "Clyde North", "FTYPE_CODE": "place", "FEATSUBTYP": "locality bounded", "HIERARCHY": 8, "STATE": "VIC", "SCALE_USEC": "6", "PFI_CR": "2010-01-01", "UFI_CR": "2011-08-11" }, "geometry": { "type": "Point", "coordinates": [ 145.329046839998028, -38.111585865000023 ] } },
{ "type": "Feature", "properties": { "UFI": 59887, "PFI": 1217, "NAME_ID": 100791, "PLACE_NAME": "COBURG", "PLACELABEL": "Coburg", "FTYPE_CODE": "place", "FEATSUBTYP": "locality bounded", "HIERARCHY": 7, "STATE": "VIC", "SCALE_USEC": "5", "PFI_CR": "2010-01-01", "UFI_CR": "2011-08-11" }, "geometry": { "type": "Point", "coordinates": [ 144.964025943994358, -37.741754837000045 ] } },
{ "type": "Feature", "properties": { "UFI": 59888, "PFI": 1218, "NAME_ID": 5803, "PLACE_NAME": "COBURG EAST", "PLACELABEL": "Coburg East", "FTYPE_CODE": "place", "FEATSUBTYP": "locality unbounded", "HIERARCHY": 8, "STATE": "VIC", "SCALE_USEC": "6", "PFI_CR": "2010-01-01", "UFI_CR": "2011-08-11" }, "geometry": { "type": "Point", "coordinates": [ 144.981285941994713, -37.733040838000029 ] } },
{ "type": "Feature", "properties": { "UFI": 59891, "PFI": 1221, "NAME_ID": 100796, "PLACE_NAME": "COCKATOO", "PLACELABEL": "Cockatoo", "FTYPE_CODE": "place", "FEATSUBTYP": "locality bounded", "HIERARCHY": 7, "STATE": "VIC", "SCALE_USEC": "4", "PFI_CR": "2010-01-01", "UFI_CR": "2011-08-11" }, "geometry": { "type": "Point", "coordinates": [ 145.495743830998862, -37.936299875000046 ] } },
{ "type": "Feature", "properties": { "UFI": 59899, "PFI": 1229, "NAME_ID": 100809, "PLACE_NAME": "COLDSTREAM", "PLACELABEL": "Coldstream", "FTYPE_CODE": "place", "FEATSUBTYP": "locality bounded", "HIERARCHY": 8, "STATE": "VIC", "SCALE_USEC": "6", "PFI_CR": "2010-01-01", "UFI_CR": "2011-08-11" }, "geometry": { "type": "Point", "coordinates": [ 145.378625873998288, -37.724757866 ] } },
{ "type": "Feature", "properties": { "UFI": 59900, "PFI": 1230, "NAME_ID": 5930, "PLACE_NAME": "COLDSTREAM WEST", "PLACELABEL": "Coldstream West", "FTYPE_CODE": "place", "FEATSUBTYP": "locality unbounded", "HIERARCHY": 8, "STATE": "VIC", "SCALE_USEC": "6", "PFI_CR": "2010-01-01", "UFI_CR": "2011-08-11" }, "geometry": { "type": "Point", "coordinates": [ 145.356079878998202, -37.718136864000023 ] } },
{ "type": "Feature", "properties": { "UFI": 59904, "PFI": 1234, "NAME_ID": 100812, "PLACE_NAME": "COLLINGWOOD", "PLACELABEL": "Collingwood", "FTYPE_CODE": "place", "FEATSUBTYP": "locality bounded", "HIERARCHY": 8, "STATE": "VIC", "SCALE_USEC": "6", "PFI_CR": "2010-01-01", "UFI_CR": "2011-08-11" }, "geometry": { "type": "Point", "coordinates": [ 144.988479932994807, -37.802554839000067 ] } },
{ "type": "Feature", "properties": { "UFI": 59959, "PFI": 1289, "NAME_ID": 100865, "PLACE_NAME": "CRANBOURNE", "PLACELABEL": "Cranbourne", "FTYPE_CODE": "place", "FEATSUBTYP": "locality bounded", "HIERARCHY": 6, "STATE": "VIC", "SCALE_USEC": "4", "PFI_CR": "2010-01-01", "UFI_CR": "2011-08-11" }, "geometry": { "type": "Point", "coordinates": [ 145.279025849997709, -38.104554861 ] } },
{ "type": "Feature", "properties": { "UFI": 59963, "PFI": 1293, "NAME_ID": 100874, "PLACE_NAME": "CREMORNE", "PLACELABEL": "Cremorne", "FTYPE_CODE": "place", "FEATSUBTYP": "locality bounded", "HIERARCHY": 8, "STATE": "VIC", "SCALE_USEC": "6", "PFI_CR": "2010-01-01", "UFI_CR": "2011-08-11" }, "geometry": { "type": "Point", "coordinates": [ 144.993424929994802, -37.82967484 ] } },
{ "type": "Feature", "properties": { "UFI": 59970, "PFI": 1300, "NAME_ID": 100891, "PLACE_NAME": "CROYDON", "PLACELABEL": "Croydon", "FTYPE_CODE": "place", "FEATSUBTYP": "locality bounded", "HIERARCHY": 8, "STATE": "VIC", "SCALE_USEC": "6", "PFI_CR": "2010-01-01", "UFI_CR": "2011-08-11" }, "geometry": { "type": "Point", "coordinates": [ 145.280524883997742, -37.796366858999981 ] } },
{ "type": "Feature", "properties": { "UFI": 59971, "PFI": 1301, "NAME_ID": 100894, "PLACE_NAME": "CROYDON SOUTH", "PLACELABEL": "Croydon South", "FTYPE_CODE": "place", "FEATSUBTYP": "locality bounded", "HIERARCHY": 8, "STATE": "VIC", "SCALE_USEC": "6", "PFI_CR": "2010-01-01", "UFI_CR": "2011-08-11" }, "geometry": { "type": "Point", "coordinates": [ 145.271021882997701, -37.814252859000014 ] } },
{ "type": "Feature", "properties": { "UFI": 59993, "PFI": 1323, "NAME_ID": 100915, "PLACE_NAME": "DALLAS", "PLACELABEL": "Dallas", "FTYPE_CODE": "place", "FEATSUBTYP": "locality bounded", "HIERARCHY": 8, "STATE": "VIC", "SCALE_USEC": "6", "PFI_CR": "2010-01-01", "UFI_CR": "2011-08-11" }, "geometry": { "type": "Point", "coordinates": [ 144.939959955994027, -37.66833983500004 ] } },
{ "type": "Feature", "properties": { "UFI": 59999, "PFI": 1329, "NAME_ID": 100921, "PLACE_NAME": "DANDENONG NORTH", "PLACELABEL": "Dandenong North", "FTYPE_CODE": "place", "FEATSUBTYP": "locality bounded", "HIERARCHY": 8, "STATE": "VIC", "SCALE_USEC": "6", "PFI_CR": "2010-01-01", "UFI_CR": "2011-08-11" }, "geometry": { "type": "Point", "coordinates": [ 145.208436877997144, -37.959310855000027 ] } },
{ "type": "Feature", "properties": { "UFI": 60000, "PFI": 1330, "NAME_ID": 100922, "PLACE_NAME": "DANDENONG SOUTH", "PLACELABEL": "Dandenong South", "FTYPE_CODE": "place", "FEATSUBTYP": "locality bounded", "HIERARCHY": 8, "STATE": "VIC", "SCALE_USEC": "6", "PFI_CR": "2010-01-01", "UFI_CR": "2011-08-11" }, "geometry": { "type": "Point", "coordinates": [ 145.21467686899723, -38.030598856000061 ] } },
{ "type": "Feature", "properties": { "UFI": 60027, "PFI": 1357, "NAME_ID": 100944, "PLACE_NAME": "DEER PARK", "PLACELABEL": "Deer Park", "FTYPE_CODE": "place", "FEATSUBTYP": "locality bounded", "HIERARCHY": 6, "STATE": "VIC", "SCALE_USEC": "4", "PFI_CR": "2010-01-01", "UFI_CR": "2011-08-11" }, "geometry": { "type": "Point", "coordinates": [ 144.767077975990873, -37.762517824000042 ] } },
{ "type": "Feature", "properties": { "UFI": 60047, "PFI": 1377, "NAME_ID": 100548, "PLACE_NAME": "BULLA", "PLACELABEL": "Bulla", "FTYPE_CODE": "place", "FEATSUBTYP": "locality bounded", "HIERARCHY": 7, "STATE": "VIC", "SCALE_USEC": "5", "PFI_CR": "2010-01-01", "UFI_CR": "2011-08-11" }, "geometry": { "type": "Point", "coordinates": [ 144.802571983991612, -37.637021825000069 ] } },
{ "type": "Feature", "properties": { "UFI": 60064, "PFI": 1394, "NAME_ID": 100568, "PLACE_NAME": "BUNDOORA", "PLACELABEL": "Bundoora", "FTYPE_CODE": "place", "FEATSUBTYP": "locality bounded", "HIERARCHY": 8, "STATE": "VIC", "SCALE_USEC": "6", "PFI_CR": "2010-01-01", "UFI_CR": "2011-08-11" }, "geometry": { "type": "Point", "coordinates": [ 145.063981931995698, -37.694774844 ] } },
{ "type": "Feature", "properties": { "UFI": 60079, "PFI": 1409, "NAME_ID": 100591, "PLACE_NAME": "BURNLEY", "PLACELABEL": "Burnley", "FTYPE_CODE": "place", "FEATSUBTYP": "locality bounded", "HIERARCHY": 8, "STATE": "VIC", "SCALE_USEC": "6", "PFI_CR": "2010-01-01", "UFI_CR": "2011-08-11" }, "geometry": { "type": "Point", "coordinates": [ 145.0132074009951, -37.82838469900004 ] } },
{ "type": "Feature", "properties": { "UFI": 60091, "PFI": 1421, "NAME_ID": 100601, "PLACE_NAME": "BURWOOD", "PLACELABEL": "Burwood", "FTYPE_CODE": "place", "FEATSUBTYP": "locality bounded", "HIERARCHY": 8, "STATE": "VIC", "SCALE_USEC": "6", "PFI_CR": "2010-01-01", "UFI_CR": "2011-08-11" }, "geometry": { "type": "Point", "coordinates": [ 145.106536907996201, -37.849572847 ] } },
{ "type": "Feature", "properties": { "UFI": 60113, "PFI": 1443, "NAME_ID": 100632, "PLACE_NAME": "CAMBERWELL", "PLACELABEL": "Camberwell", "FTYPE_CODE": "place", "FEATSUBTYP": "locality bounded", "HIERARCHY": 7, "STATE": "VIC", "SCALE_USEC": "5", "PFI_CR": "2010-01-01", "UFI_CR": "2011-08-11" }, "geometry": { "type": "Point", "coordinates": [ 145.070534915995751, -37.835469845000048 ] } },
{ "type": "Feature", "properties": { "UFI": 60116, "PFI": 1446, "NAME_ID": 100634, "PLACE_NAME": "CAMPBELLFIELD", "PLACELABEL": "Campbellfield", "FTYPE_CODE": "place", "FEATSUBTYP": "locality bounded", "HIERARCHY": 8, "STATE": "VIC", "SCALE_USEC": "6", "PFI_CR": "2010-01-01", "UFI_CR": "2011-08-11" }, "geometry": { "type": "Point", "coordinates": [ 144.956832952994347, -37.673139836000018 ] } },
{ "type": "Feature", "properties": { "UFI": 60127, "PFI": 1457, "NAME_ID": 100649, "PLACE_NAME": "CANTERBURY", "PLACELABEL": "Canterbury", "FTYPE_CODE": "place", "FEATSUBTYP": "locality bounded", "HIERARCHY": 8, "STATE": "VIC", "SCALE_USEC": "6", "PFI_CR": "2010-01-01", "UFI_CR": "2011-08-11" }, "geometry": { "type": "Point", "coordinates": [ 145.077630915995911, -37.824771845 ] } },
{ "type": "Feature", "properties": { "UFI": 60147, "PFI": 1477, "NAME_ID": 100679, "PLACE_NAME": "CARLTON", "PLACELABEL": "Carlton", "FTYPE_CODE": "place", "FEATSUBTYP": "locality bounded", "HIERARCHY": 8, "STATE": "VIC", "SCALE_USEC": "6", "PFI_CR": "2010-01-01", "UFI_CR": "2011-08-11" }, "geometry": { "type": "Point", "coordinates": [ 144.966959936994442, -37.800382838000047 ] } },
{ "type": "Feature", "properties": { "UFI": 60150, "PFI": 1480, "NAME_ID": 100683, "PLACE_NAME": "CARNEGIE", "PLACELABEL": "Carnegie", "FTYPE_CODE": "place", "FEATSUBTYP": "locality bounded", "HIERARCHY": 8, "STATE": "VIC", "SCALE_USEC": "6", "PFI_CR": "2010-01-01", "UFI_CR": "2011-08-11" }, "geometry": { "type": "Point", "coordinates": [ 145.062352910995713, -37.887604845 ] } },
{ "type": "Feature", "properties": { "UFI": 60157, "PFI": 1487, "NAME_ID": 100694, "PLACE_NAME": "CARRUM", "PLACELABEL": "Carrum", "FTYPE_CODE": "place", "FEATSUBTYP": "locality bounded", "HIERARCHY": 8, "STATE": "VIC", "SCALE_USEC": "6", "PFI_CR": "2010-01-01", "UFI_CR": "2011-08-11" }, "geometry": { "type": "Point", "coordinates": [ 145.122369879996398, -38.076021850000039 ] } },
{ "type": "Feature", "properties": { "UFI": 60167, "PFI": 1497, "NAME_ID": 100709, "PLACE_NAME": "CAULFIELD EAST", "PLACELABEL": "Caulfield East", "FTYPE_CODE": "place", "FEATSUBTYP": "locality bounded", "HIERARCHY": 8, "STATE": "VIC", "SCALE_USEC": "6", "PFI_CR": "2010-01-01", "UFI_CR": "2011-08-11" }, "geometry": { "type": "Point", "coordinates": [ 145.044169573995504, -37.878570685000014 ] } },
{ "type": "Feature", "properties": { "UFI": 60168, "PFI": 1498, "NAME_ID": 100710, "PLACE_NAME": "CAULFIELD NORTH", "PLACELABEL": "Caulfield North", "FTYPE_CODE": "place", "FEATSUBTYP": "locality bounded", "HIERARCHY": 8, "STATE": "VIC", "SCALE_USEC": "6", "PFI_CR": "2010-01-01", "UFI_CR": "2011-08-11" }, "geometry": { "type": "Point", "coordinates": [ 145.025229918995223, -37.872567842000045 ] } },
{ "type": "Feature", "properties": { "UFI": 60185, "PFI": 1515, "NAME_ID": 100726, "PLACE_NAME": "CHELSEA HEIGHTS", "PLACELABEL": "Chelsea Heights", "FTYPE_CODE": "place", "FEATSUBTYP": "locality bounded", "HIERARCHY": 8, "STATE": "VIC", "SCALE_USEC": "6", "PFI_CR": "2010-01-01", "UFI_CR": "2011-08-11" }, "geometry": { "type": "Point", "coordinates": [ 145.136798880996594, -38.046512851000017 ] } },
{ "type": "Feature", "properties": { "UFI": 60206, "PFI": 1536, "NAME_ID": 100327, "PLACE_NAME": "BELGRAVE", "PLACELABEL": "Belgrave", "FTYPE_CODE": "place", "FEATSUBTYP": "locality bounded", "HIERARCHY": 6, "STATE": "VIC", "SCALE_USEC": "4", "PFI_CR": "2010-01-01", "UFI_CR": "2011-08-11" }, "geometry": { "type": "Point", "coordinates": [ 145.357422856998227, -37.913721865000021 ] } },
{ "type": "Feature", "properties": { "UFI": 60207, "PFI": 1537, "NAME_ID": 100329, "PLACE_NAME": "BELGRAVE SOUTH", "PLACELABEL": "Belgrave South", "FTYPE_CODE": "place", "FEATSUBTYP": "locality bounded", "HIERARCHY": 8, "STATE": "VIC", "SCALE_USEC": "6", "PFI_CR": "2010-01-01", "UFI_CR": "2011-08-11" }, "geometry": { "type": "Point", "coordinates": [ 145.358036446998199, -37.932886257000014 ] } },
{ "type": "Feature", "properties": { "UFI": 60230, "PFI": 1560, "NAME_ID": 100354, "PLACE_NAME": "BENTLEIGH", "PLACELABEL": "Bentleigh", "FTYPE_CODE": "place", "FEATSUBTYP": "locality bounded", "HIERARCHY": 8, "STATE": "VIC", "SCALE_USEC": "6", "PFI_CR": "2010-01-01", "UFI_CR": "2011-08-11" }, "geometry": { "type": "Point", "coordinates": [ 145.036413911995368, -37.922319843000032 ] } },
{ "type": "Feature", "properties": { "UFI": 60231, "PFI": 1561, "NAME_ID": 100355, "PLACE_NAME": "BENTLEIGH EAST", "PLACELABEL": "Bentleigh East", "FTYPE_CODE": "place", "FEATSUBTYP": "locality bounded", "HIERARCHY": 8, "STATE": "VIC", "SCALE_USEC": "6", "PFI_CR": "2010-01-01", "UFI_CR": "2011-08-11" }, "geometry": { "type": "Point", "coordinates": [ 145.064865906995692, -37.921890845000028 ] } },
{ "type": "Feature", "properties": { "UFI": 60243, "PFI": 1573, "NAME_ID": 100365, "PLACE_NAME": "BERWICK", "PLACELABEL": "Berwick", "FTYPE_CODE": "place", "FEATSUBTYP": "locality bounded", "HIERARCHY": 6, "STATE": "VIC", "SCALE_USEC": "4", "PFI_CR": "2010-01-01", "UFI_CR": "2011-08-11" }, "geometry": { "type": "Point", "coordinates": [ 145.354749843998178, -38.033544866 ] } },
{ "type": "Feature", "properties": { "UFI": 60417, "PFI": 1747, "NAME_ID": 100154, "PLACE_NAME": "ALTONA", "PLACELABEL": "Altona", "FTYPE_CODE": "place", "FEATSUBTYP": "locality bounded", "HIERARCHY": 8, "STATE": "VIC", "SCALE_USEC": "6", "PFI_CR": "2010-01-01", "UFI_CR": "2011-08-11" }, "geometry": { "type": "Point", "coordinates": [ 144.82982095399214, -37.868225829000103 ] } },
{ "type": "Feature", "properties": { "UFI": 60418, "PFI": 1748, "NAME_ID": 282, "PLACE_NAME": "ALTONA GATE", "PLACELABEL": "Altona Gate", "FTYPE_CODE": "place", "FEATSUBTYP": "locality unbounded", "HIERARCHY": 8, "STATE": "VIC", "SCALE_USEC": "6", "PFI_CR": "2010-01-01", "UFI_CR": "2011-08-11" }, "geometry": { "type": "Point", "coordinates": [ 144.843499955992399, -37.827924829000096 ] } },
{ "type": "Feature", "properties": { "UFI": 60419, "PFI": 1749, "NAME_ID": 100155, "PLACE_NAME": "ALTONA MEADOWS", "PLACELABEL": "Altona Meadows", "FTYPE_CODE": "place", "FEATSUBTYP": "locality bounded", "HIERARCHY": 8, "STATE": "VIC", "SCALE_USEC": "6", "PFI_CR": "2010-01-01", "UFI_CR": "2011-08-11" }, "geometry": { "type": "Point", "coordinates": [ 144.781860961991214, -37.875440825000084 ] } },
{ "type": "Feature", "properties": { "UFI": 60420, "PFI": 1750, "NAME_ID": 100156, "PLACE_NAME": "ALTONA NORTH", "PLACELABEL": "Altona North", "FTYPE_CODE": "place", "FEATSUBTYP": "locality bounded", "HIERARCHY": 8, "STATE": "VIC", "SCALE_USEC": "6", "PFI_CR": "2010-01-01", "UFI_CR": "2011-08-11" }, "geometry": { "type": "Point", "coordinates": [ 144.848810953992512, -37.840637830000041 ] } },
{ "type": "Feature", "properties": { "UFI": 60443, "PFI": 1773, "NAME_ID": 100188, "PLACE_NAME": "ARDEER", "PLACELABEL": "Ardeer", "FTYPE_CODE": "place", "FEATSUBTYP": "locality bounded", "HIERARCHY": 8, "STATE": "VIC", "SCALE_USEC": "6", "PFI_CR": "2010-01-01", "UFI_CR": "2011-08-11" }, "geometry": { "type": "Point", "coordinates": [ 144.802007834991542, -37.778832976000047 ] } },
{ "type": "Feature", "properties": { "UFI": 60451, "PFI": 1781, "NAME_ID": 100192, "PLACE_NAME": "ARMADALE", "PLACELABEL": "Armadale", "FTYPE_CODE": "place", "FEATSUBTYP": "locality bounded", "HIERARCHY": 8, "STATE": "VIC", "SCALE_USEC": "6", "PFI_CR": "2010-01-01", "UFI_CR": "2011-08-11" }, "geometry": { "type": "Point", "coordinates": [ 145.021094921995228, -37.857178842 ] } },
{ "type": "Feature", "properties": { "UFI": 60455, "PFI": 1785, "NAME_ID": 100196, "PLACE_NAME": "ARTHURS CREEK", "PLACELABEL": "Arthurs Creek", "FTYPE_CODE": "place", "FEATSUBTYP": "locality bounded", "HIERARCHY": 8, "STATE": "VIC", "SCALE_USEC": "6", "PFI_CR": "2010-01-01", "UFI_CR": "2011-08-11" }, "geometry": { "type": "Point", "coordinates": [ 145.207314919997145, -37.582585852999969 ] } },
{ "type": "Feature", "properties": { "UFI": 60457, "PFI": 1787, "NAME_ID": 100200, "PLACE_NAME": "ASCOT VALE", "PLACELABEL": "Ascot Vale", "FTYPE_CODE": "place", "FEATSUBTYP": "locality bounded", "HIERARCHY": 8, "STATE": "VIC", "SCALE_USEC": "6", "PFI_CR": "2010-01-01", "UFI_CR": "2011-08-11" }, "geometry": { "type": "Point", "coordinates": [ 144.918728947993714, -37.778813834000026 ] } },
{ "type": "Feature", "properties": { "UFI": 60459, "PFI": 1789, "NAME_ID": 100202, "PLACE_NAME": "ASHBURTON", "PLACELABEL": "Ashburton", "FTYPE_CODE": "place", "FEATSUBTYP": "locality bounded", "HIERARCHY": 8, "STATE": "VIC", "SCALE_USEC": "6", "PFI_CR": "2010-01-01", "UFI_CR": "2011-08-11" }, "geometry": { "type": "Point", "coordinates": [ 145.083348909995919, -37.867220846000023 ] } },
{ "type": "Feature", "properties": { "UFI": 60460, "PFI": 1790, "NAME_ID": 100203, "PLACE_NAME": "ASHWOOD", "PLACELABEL": "Ashwood", "FTYPE_CODE": "place", "FEATSUBTYP": "locality bounded", "HIERARCHY": 8, "STATE": "VIC", "SCALE_USEC": "6", "PFI_CR": "2010-01-01", "UFI_CR": "2011-08-11" }, "geometry": { "type": "Point", "coordinates": [ 145.102688906996121, -37.86663284700002 ] } },
{ "type": "Feature", "properties": { "UFI": 60461, "PFI": 1791, "NAME_ID": 100204, "PLACE_NAME": "ASPENDALE", "PLACELABEL": "Aspendale", "FTYPE_CODE": "place", "FEATSUBTYP": "locality bounded", "HIERARCHY": 8, "STATE": "VIC", "SCALE_USEC": "6", "PFI_CR": "2010-01-01", "UFI_CR": "2011-08-11" }, "geometry": { "type": "Point", "coordinates": [ 145.104298888996254, -38.025266848000022 ] } },
{ "type": "Feature", "properties": { "UFI": 60462, "PFI": 1792, "NAME_ID": 100205, "PLACE_NAME": "ASPENDALE GARDENS", "PLACELABEL": "Aspendale Gardens", "FTYPE_CODE": "place", "FEATSUBTYP": "locality bounded", "HIERARCHY": 8, "STATE": "VIC", "SCALE_USEC": "6", "PFI_CR": "2010-01-01", "UFI_CR": "2011-08-11" }, "geometry": { "type": "Point", "coordinates": [ 145.118079886996298, -38.020981849000037 ] } },
{ "type": "Feature", "properties": { "UFI": 60463, "PFI": 1793, "NAME_ID": 100207, "PLACE_NAME": "ATTWOOD", "PLACELABEL": "Attwood", "FTYPE_CODE": "place", "FEATSUBTYP": "locality bounded", "HIERARCHY": 8, "STATE": "VIC", "SCALE_USEC": "6", "PFI_CR": "2010-01-01", "UFI_CR": "2011-08-11" }, "geometry": { "type": "Point", "coordinates": [ 144.886752965993139, -37.665595831000047 ] } },
{ "type": "Feature", "properties": { "UFI": 60468, "PFI": 1798, "NAME_ID": 100215, "PLACE_NAME": "AVONDALE HEIGHTS", "PLACELABEL": "Avondale Heights", "FTYPE_CODE": "place", "FEATSUBTYP": "locality bounded", "HIERARCHY": 8, "STATE": "VIC", "SCALE_USEC": "6", "PFI_CR": "2010-01-01", "UFI_CR": "2011-08-11" }, "geometry": { "type": "Point", "coordinates": [ 144.863641959992805, -37.759803830000045 ] } },
{ "type": "Feature", "properties": { "UFI": 60503, "PFI": 1833, "NAME_ID": 100254, "PLACE_NAME": "BALWYN", "PLACELABEL": "Balwyn", "FTYPE_CODE": "place", "FEATSUBTYP": "locality bounded", "HIERARCHY": 7, "STATE": "VIC", "SCALE_USEC": "5", "PFI_CR": "2010-01-01", "UFI_CR": "2011-08-11" }, "geometry": { "type": "Point", "coordinates": [ 145.082291207995894, -37.812006279 ] } },
{ "type": "Feature", "properties": { "UFI": 60504, "PFI": 1834, "NAME_ID": 100255, "PLACE_NAME": "BALWYN NORTH", "PLACELABEL": "Balwyn North", "FTYPE_CODE": "place", "FEATSUBTYP": "locality bounded", "HIERARCHY": 8, "STATE": "VIC", "SCALE_USEC": "6", "PFI_CR": "2010-01-01", "UFI_CR": "2011-08-11" }, "geometry": { "type": "Point", "coordinates": [ 145.086394916996056, -37.793372846000018 ] } },
{ "type": "Feature", "properties": { "UFI": 60509, "PFI": 1839, "NAME_ID": 100263, "PLACE_NAME": "BANGHOLME", "PLACELABEL": "Bangholme", "FTYPE_CODE": "place", "FEATSUBTYP": "locality bounded", "HIERARCHY": 8, "STATE": "VIC", "SCALE_USEC": "6", "PFI_CR": "2010-01-01", "UFI_CR": "2011-08-11" }, "geometry": { "type": "Point", "coordinates": [ 145.166370874996858, -38.048779853000063 ] } },
{ "type": "Feature", "properties": { "UFI": 60711, "PFI": 2041, "NAME_ID": 102708, "PLACE_NAME": "SEABROOK", "PLACELABEL": "Seabrook", "FTYPE_CODE": "place", "FEATSUBTYP": "locality bounded", "HIERARCHY": 9, "STATE": "VIC", "SCALE_USEC": "7", "PFI_CR": "2010-01-01", "UFI_CR": "2011-08-11" }, "geometry": { "type": "Point", "coordinates": [ 144.758068914990645, -37.878262707000118 ] } },
{ "type": "Feature", "properties": { "UFI": 60712, "PFI": 2042, "NAME_ID": 100136, "PLACE_NAME": "ALBION", "PLACELABEL": "Albion", "FTYPE_CODE": "place", "FEATSUBTYP": "locality bounded", "HIERARCHY": 9, "STATE": "VIC", "SCALE_USEC": "7", "PFI_CR": "2010-01-01", "UFI_CR": "2011-08-11" }, "geometry": { "type": "Point", "coordinates": [ 144.814644357991767, -37.781006335000079 ] } },
{ "type": "Feature", "properties": { "UFI": 60713, "PFI": 2043, "NAME_ID": 103088, "PLACE_NAME": "TRAVANCORE", "PLACELABEL": "Travancore", "FTYPE_CODE": "place", "FEATSUBTYP": "locality bounded", "HIERARCHY": 9, "STATE": "VIC", "SCALE_USEC": "7", "PFI_CR": "2010-01-01", "UFI_CR": "2011-08-11" }, "geometry": { "type": "Point", "coordinates": [ 144.933349902993911, -37.781191335000031 ] } },
{ "type": "Feature", "properties": { "UFI": 60714, "PFI": 2044, "NAME_ID": 102628, "PLACE_NAME": "RIPPONLEA", "PLACELABEL": "Ripponlea", "FTYPE_CODE": "place", "FEATSUBTYP": "locality bounded", "HIERARCHY": 9, "STATE": "VIC", "SCALE_USEC": "7", "PFI_CR": "2010-01-01", "UFI_CR": "2011-08-11" }, "geometry": { "type": "Point", "coordinates": [ 144.995715723994863, -37.876860598000029 ] } },
{ "type": "Feature", "properties": { "UFI": 60715, "PFI": 2045, "NAME_ID": 101513, "PLACE_NAME": "HUNTINGDALE", "PLACELABEL": "Huntingdale", "FTYPE_CODE": "place", "FEATSUBTYP": "locality bounded", "HIERARCHY": 9, "STATE": "VIC", "SCALE_USEC": "7", "PFI_CR": "2010-01-01", "UFI_CR": "2011-08-11" }, "geometry": { "type": "Point", "coordinates": [ 145.104204943996223, -37.910442365 ] } },
{ "type": "Feature", "properties": { "UFI": 60723, "PFI": 2053, "NAME_ID": 24502, "PLACE_NAME": "SLOAN HILL", "PLACELABEL": "Sloan Hill", "FTYPE_CODE": "place", "FEATSUBTYP": "locality unbounded", "HIERARCHY": 8, "STATE": "VIC", "SCALE_USEC": "6", "PFI_CR": "2010-01-01", "UFI_CR": "2011-08-11" }, "geometry": { "type": "Point", "coordinates": [ 145.216148901997286, -37.734126854 ] } },
{ "type": "Feature", "properties": { "UFI": 60728, "PFI": 2058, "NAME_ID": 102786, "PLACE_NAME": "SOUTHBANK", "PLACELABEL": "Southbank", "FTYPE_CODE": "place", "FEATSUBTYP": "locality bounded", "HIERARCHY": 8, "STATE": "VIC", "SCALE_USEC": "6", "PFI_CR": "2010-01-01", "UFI_CR": "2011-08-11" }, "geometry": { "type": "Point", "coordinates": [ 144.96175093599436, -37.824624837000023 ] } },
{ "type": "Feature", "properties": { "UFI": 60732, "PFI": 2062, "NAME_ID": 23320, "PLACE_NAME": "ST ALBANS EAST", "PLACELABEL": "St Albans East", "FTYPE_CODE": "place", "FEATSUBTYP": "locality unbounded", "HIERARCHY": 8, "STATE": "VIC", "SCALE_USEC": "6", "PFI_CR": "2010-01-01", "UFI_CR": "2011-08-11" }, "geometry": { "type": "Point", "coordinates": [ 144.808610970991737, -37.739866826000082 ] } },
{ "type": "Feature", "properties": { "UFI": 60745, "PFI": 2075, "NAME_ID": 25539, "PLACE_NAME": "STUDFIELD", "PLACELABEL": "Studfield", "FTYPE_CODE": "place", "FEATSUBTYP": "locality unbounded", "HIERARCHY": 8, "STATE": "VIC", "SCALE_USEC": "6", "PFI_CR": "2010-01-01", "UFI_CR": "2011-08-11" }, "geometry": { "type": "Point", "coordinates": [ 145.247265881997492, -37.858060857 ] } },
{ "type": "Feature", "properties": { "UFI": 60748, "PFI": 2078, "NAME_ID": 102885, "PLACE_NAME": "SURREY HILLS", "PLACELABEL": "Surrey Hills", "FTYPE_CODE": "place", "FEATSUBTYP": "locality bounded", "HIERARCHY": 8, "STATE": "VIC", "SCALE_USEC": "6", "PFI_CR": "2010-01-01", "UFI_CR": "2011-08-11" }, "geometry": { "type": "Point", "coordinates": [ 145.096867911996128, -37.827787847000032 ] } },
{ "type": "Feature", "properties": { "UFI": 60751, "PFI": 2081, "NAME_ID": 25863, "PLACE_NAME": "SYDENHAM PARK", "PLACELABEL": "Sydenham Park", "FTYPE_CODE": "place", "FEATSUBTYP": "locality unbounded", "HIERARCHY": 8, "STATE": "VIC", "SCALE_USEC": "6", "PFI_CR": "2010-01-01", "UFI_CR": "2011-08-11" }, "geometry": { "type": "Point", "coordinates": [ 144.789909980991297, -37.68184382500003 ] } },
{ "type": "Feature", "properties": { "UFI": 60770, "PFI": 2100, "NAME_ID": 102973, "PLACE_NAME": "TECOMA", "PLACELABEL": "Tecoma", "FTYPE_CODE": "place", "FEATSUBTYP": "locality bounded", "HIERARCHY": 8, "STATE": "VIC", "SCALE_USEC": "6", "PFI_CR": "2010-01-01", "UFI_CR": "2011-08-11" }, "geometry": { "type": "Point", "coordinates": [ 145.346272859998209, -37.903652864000044 ] } },
{ "type": "Feature", "properties": { "UFI": 60776, "PFI": 2106, "NAME_ID": 26606, "PLACE_NAME": "THE GAP", "PLACELABEL": "The Gap", "FTYPE_CODE": "place", "FEATSUBTYP": "locality unbounded", "HIERARCHY": 8, "STATE": "VIC", "SCALE_USEC": "6", "PFI_CR": "2010-01-01", "UFI_CR": "2011-08-11" }, "geometry": { "type": "Point", "coordinates": [ 144.679758010988735, -37.577895817000083 ] } },
{ "type": "Feature", "properties": { "UFI": 60779, "PFI": 2109, "NAME_ID": 103005, "PLACE_NAME": "THOMASTOWN", "PLACELABEL": "Thomastown", "FTYPE_CODE": "place", "FEATSUBTYP": "locality bounded", "HIERARCHY": 7, "STATE": "VIC", "SCALE_USEC": "5", "PFI_CR": "2010-01-01", "UFI_CR": "2011-08-11" }, "geometry": { "type": "Point", "coordinates": [ 145.014414941995057, -37.682234840000042 ] } },
{ "type": "Feature", "properties": { "UFI": 60810, "PFI": 2140, "NAME_ID": 103141, "PLACE_NAME": "UPPER FERNTREE GULLY", "PLACELABEL": "Upper Ferntree Gully", "FTYPE_CODE": "place", "FEATSUBTYP": "locality bounded", "HIERARCHY": 8, "STATE": "VIC", "SCALE_USEC": "6", "PFI_CR": "2010-01-01", "UFI_CR": "2011-08-11" }, "geometry": { "type": "Point", "coordinates": [ 145.310073866997897, -37.895027862000013 ] } },
{ "type": "Feature", "properties": { "UFI": 60811, "PFI": 2141, "NAME_ID": 103149, "PLACE_NAME": "UPWEY", "PLACELABEL": "Upwey", "FTYPE_CODE": "place", "FEATSUBTYP": "locality bounded", "HIERARCHY": 7, "STATE": "VIC", "SCALE_USEC": "5", "PFI_CR": "2010-01-01", "UFI_CR": "2011-08-11" }, "geometry": { "type": "Point", "coordinates": [ 145.330354862998007, -37.903427863 ] } },
{ "type": "Feature", "properties": { "UFI": 60549, "PFI": 1879, "NAME_ID": 100309, "PLACE_NAME": "BAYSWATER", "PLACELABEL": "Bayswater", "FTYPE_CODE": "place", "FEATSUBTYP": "locality bounded", "HIERARCHY": 7, "STATE": "VIC", "SCALE_USEC": "5", "PFI_CR": "2010-01-01", "UFI_CR": "2011-08-11" }, "geometry": { "type": "Point", "coordinates": [ 145.268075880997657, -37.843047859000023 ] } },
{ "type": "Feature", "properties": { "UFI": 60576, "PFI": 1906, "NAME_ID": 101265, "PLACE_NAME": "GLEN HUNTLY", "PLACELABEL": "Glen Huntly", "FTYPE_CODE": "place", "FEATSUBTYP": "locality bounded", "HIERARCHY": 8, "STATE": "VIC", "SCALE_USEC": "6", "PFI_CR": "2010-01-01", "UFI_CR": "2011-08-11" }, "geometry": { "type": "Point", "coordinates": [ 145.042088606995492, -37.889075193 ] } },
{ "type": "Feature", "properties": { "UFI": 60579, "PFI": 1909, "NAME_ID": 101449, "PLACE_NAME": "HEATHERTON", "PLACELABEL": "Heatherton", "FTYPE_CODE": "place", "FEATSUBTYP": "locality bounded", "HIERARCHY": 8, "STATE": "VIC", "SCALE_USEC": "6", "PFI_CR": "2010-01-01", "UFI_CR": "2011-08-11" }, "geometry": { "type": "Point", "coordinates": [ 145.084538899996005, -37.952852847000059 ] } },
{ "type": "Feature", "properties": { "UFI": 60593, "PFI": 1923, "NAME_ID": 102244, "PLACE_NAME": "MURRUMBEENA", "PLACELABEL": "Murrumbeena", "FTYPE_CODE": "place", "FEATSUBTYP": "locality bounded", "HIERARCHY": 8, "STATE": "VIC", "SCALE_USEC": "6", "PFI_CR": "2010-01-01", "UFI_CR": "2011-08-11" }, "geometry": { "type": "Point", "coordinates": [ 145.07229990799587, -37.898581845000038 ] } },
{ "type": "Feature", "properties": { "UFI": 60597, "PFI": 1927, "NAME_ID": 102455, "PLACE_NAME": "PARKDALE", "PLACELABEL": "Parkdale", "FTYPE_CODE": "place", "FEATSUBTYP": "locality bounded", "HIERARCHY": 8, "STATE": "VIC", "SCALE_USEC": "6", "PFI_CR": "2010-01-01", "UFI_CR": "2011-08-11" }, "geometry": { "type": "Point", "coordinates": [ 145.086945895995996, -37.991641847000061 ] } },
{ "type": "Feature", "properties": { "UFI": 60603, "PFI": 1933, "NAME_ID": 102699, "PLACE_NAME": "SASSAFRAS", "PLACELABEL": "Sassafras", "FTYPE_CODE": "place", "FEATSUBTYP": "locality bounded", "HIERARCHY": 8, "STATE": "VIC", "SCALE_USEC": "6", "PFI_CR": "2010-01-01", "UFI_CR": "2011-08-11" }, "geometry": { "type": "Point", "coordinates": [ 145.353837862998233, -37.870413865 ] } },
{ "type": "Feature", "properties": { "UFI": 60606, "PFI": 1936, "NAME_ID": 102883, "PLACE_NAME": "SUNSHINE WEST", "PLACELABEL": "Sunshine West", "FTYPE_CODE": "place", "FEATSUBTYP": "locality bounded", "HIERARCHY": 8, "STATE": "VIC", "SCALE_USEC": "6", "PFI_CR": "2010-01-01", "UFI_CR": "2011-08-11" }, "geometry": { "type": "Point", "coordinates": [ 144.816067963991799, -37.794977827000075 ] } },
{ "type": "Feature", "properties": { "UFI": 60875, "PFI": 2205, "NAME_ID": 30169, "PLACE_NAME": "WRIGHT", "PLACELABEL": "Wright", "FTYPE_CODE": "place", "FEATSUBTYP": "locality unbounded", "HIERARCHY": 8, "STATE": "VIC", "SCALE_USEC": "6", "PFI_CR": "2010-01-01", "UFI_CR": "2011-08-11" }, "geometry": { "type": "Point", "coordinates": [ 145.469728835998779, -37.928754873000017 ] } },
{ "type": "Feature", "properties": { "UFI": 60618, "PFI": 1948, "NAME_ID": 103481, "PLACE_NAME": "YARRAVILLE", "PLACELABEL": "Yarraville", "FTYPE_CODE": "place", "FEATSUBTYP": "locality bounded", "HIERARCHY": 8, "STATE": "VIC", "SCALE_USEC": "6", "PFI_CR": "2010-01-01", "UFI_CR": "2011-08-11" }, "geometry": { "type": "Point", "coordinates": [ 144.891269273993203, -37.816517341000043 ] } },
{ "type": "Feature", "properties": { "UFI": 60643, "PFI": 1973, "NAME_ID": 100593, "PLACE_NAME": "BURNSIDE HEIGHTS", "PLACELABEL": "Burnside Heights", "FTYPE_CODE": "place", "FEATSUBTYP": "locality bounded", "HIERARCHY": 9, "STATE": "VIC", "SCALE_USEC": "7", "PFI_CR": "2010-01-01", "UFI_CR": "2011-08-11" }, "geometry": { "type": "Point", "coordinates": [ 144.75431813899047, -37.734088565000107 ] } },
{ "type": "Feature", "properties": { "UFI": 60644, "PFI": 1974, "NAME_ID": 102581, "PLACE_NAME": "RAVENHALL", "PLACELABEL": "Ravenhall", "FTYPE_CODE": "place", "FEATSUBTYP": "locality bounded", "HIERARCHY": 9, "STATE": "VIC", "SCALE_USEC": "7", "PFI_CR": "2010-01-01", "UFI_CR": "2011-08-11" }, "geometry": { "type": "Point", "coordinates": [ 144.738587506990143, -37.759264772000073 ] } },
{ "type": "Feature", "properties": { "UFI": 60647, "PFI": 1977, "NAME_ID": 101993, "PLACE_NAME": "MEADOW HEIGHTS", "PLACELABEL": "Meadow Heights", "FTYPE_CODE": "place", "FEATSUBTYP": "locality bounded", "HIERARCHY": 9, "STATE": "VIC", "SCALE_USEC": "7", "PFI_CR": "2010-01-01", "UFI_CR": "2011-08-11" }, "geometry": { "type": "Point", "coordinates": [ 144.922437468993792, -37.650630551000013 ] } },
{ "type": "Feature", "properties": { "UFI": 60648, "PFI": 1978, "NAME_ID": 101143, "PLACE_NAME": "EYNESBURY", "PLACELABEL": "Eynesbury", "FTYPE_CODE": "place", "FEATSUBTYP": "locality bounded", "HIERARCHY": 9, "STATE": "VIC", "SCALE_USEC": "7", "PFI_CR": "2010-01-01", "UFI_CR": "2011-08-11" }, "geometry": { "type": "Point", "coordinates": [ 144.562649708985276, -37.79107039300024 ] } },
{ "type": "Feature", "properties": { "UFI": 60649, "PFI": 1979, "NAME_ID": 100347, "PLACE_NAME": "BEND OF ISLANDS", "PLACELABEL": "Bend of Islands", "FTYPE_CODE": "place", "FEATSUBTYP": "locality bounded", "HIERARCHY": 9, "STATE": "VIC", "SCALE_USEC": "7", "PFI_CR": "2010-01-01", "UFI_CR": "2011-08-11" }, "geometry": { "type": "Point", "coordinates": [ 145.278854035997767, -37.701085057999983 ] } },
{ "type": "Feature", "properties": { "UFI": 60651, "PFI": 1981, "NAME_ID": 100867, "PLACE_NAME": "CRANBOURNE NORTH", "PLACELABEL": "Cranbourne North", "FTYPE_CODE": "place", "FEATSUBTYP": "locality bounded", "HIERARCHY": 9, "STATE": "VIC", "SCALE_USEC": "7", "PFI_CR": "2010-01-01", "UFI_CR": "2011-08-11" }, "geometry": { "type": "Point", "coordinates": [ 145.297892923997836, -38.077072329000039 ] } },
{ "type": "Feature", "properties": { "UFI": 60652, "PFI": 1982, "NAME_ID": 102128, "PLACE_NAME": "MOORABBIN AIRPORT", "PLACELABEL": "Moorabbin Airport", "FTYPE_CODE": "place", "FEATSUBTYP": "locality bounded", "HIERARCHY": 9, "STATE": "VIC", "SCALE_USEC": "7", "PFI_CR": "2010-01-01", "UFI_CR": "2011-08-11" }, "geometry": { "type": "Point", "coordinates": [ 145.093649078996094, -37.974888597000039 ] } },
{ "type": "Feature", "properties": { "UFI": 60653, "PFI": 1983, "NAME_ID": 100893, "PLACE_NAME": "CROYDON NORTH", "PLACELABEL": "Croydon North", "FTYPE_CODE": "place", "FEATSUBTYP": "locality bounded", "HIERARCHY": 9, "STATE": "VIC", "SCALE_USEC": "7", "PFI_CR": "2010-01-01", "UFI_CR": "2011-08-11" }, "geometry": { "type": "Point", "coordinates": [ 145.285422551997783, -37.778459084000019 ] } },
{ "type": "Feature", "properties": { "UFI": 60662, "PFI": 1992, "NAME_ID": 102032, "PLACE_NAME": "MERRIMU", "PLACELABEL": "Merrimu", "FTYPE_CODE": "place", "FEATSUBTYP": "locality bounded", "HIERARCHY": 9, "STATE": "VIC", "SCALE_USEC": "7", "PFI_CR": "2010-01-01", "UFI_CR": "2011-08-11" }, "geometry": { "type": "Point", "coordinates": [ 144.480603061982379, -37.659190604000258 ] } },
{ "type": "Feature", "properties": { "UFI": 60669, "PFI": 1999, "NAME_ID": 100328, "PLACE_NAME": "BELGRAVE HEIGHTS", "PLACELABEL": "Belgrave Heights", "FTYPE_CODE": "place", "FEATSUBTYP": "locality bounded", "HIERARCHY": 9, "STATE": "VIC", "SCALE_USEC": "7", "PFI_CR": "2010-01-01", "UFI_CR": "2011-08-11" }, "geometry": { "type": "Point", "coordinates": [ 145.353367572998138, -37.926089107 ] } },
{ "type": "Feature", "properties": { "UFI": 60670, "PFI": 2000, "NAME_ID": 101907, "PLACE_NAME": "LYSTERFIELD", "PLACELABEL": "Lysterfield", "FTYPE_CODE": "place", "FEATSUBTYP": "locality bounded", "HIERARCHY": 8, "STATE": "VIC", "SCALE_USEC": "6", "PFI_CR": "2010-01-01", "UFI_CR": "2011-08-11" }, "geometry": { "type": "Point", "coordinates": [ 145.302167206997837, -37.931053079000051 ] } },
{ "type": "Feature", "properties": { "UFI": 60671, "PFI": 2001, "NAME_ID": 101911, "PLACE_NAME": "MACCLESFIELD", "PLACELABEL": "Macclesfield", "FTYPE_CODE": "place", "FEATSUBTYP": "locality bounded", "HIERARCHY": 8, "STATE": "VIC", "SCALE_USEC": "6", "PFI_CR": "2010-01-01", "UFI_CR": "2011-08-11" }, "geometry": { "type": "Point", "coordinates": [ 145.474891864998739, -37.887045181000019 ] } },
{ "type": "Feature", "properties": { "UFI": 60837, "PFI": 2167, "NAME_ID": 28825, "PLACE_NAME": "WATTLE PARK", "PLACELABEL": "Wattle Park", "FTYPE_CODE": "place", "FEATSUBTYP": "locality unbounded", "HIERARCHY": 8, "STATE": "VIC", "SCALE_USEC": "6", "PFI_CR": "2010-01-01", "UFI_CR": "2011-08-11" }, "geometry": { "type": "Point", "coordinates": [ 145.103473909996154, -37.836004847000041 ] } },
{ "type": "Feature", "properties": { "UFI": 60847, "PFI": 2177, "NAME_ID": 103311, "PLACE_NAME": "WHEELERS HILL", "PLACELABEL": "Wheelers Hill", "FTYPE_CODE": "place", "FEATSUBTYP": "locality bounded", "HIERARCHY": 8, "STATE": "VIC", "SCALE_USEC": "6", "PFI_CR": "2010-01-01", "UFI_CR": "2011-08-11" }, "geometry": { "type": "Point", "coordinates": [ 145.182594888996931, -37.899435853 ] } },
{ "type": "Feature", "properties": { "UFI": 60870, "PFI": 2200, "NAME_ID": 103400, "PLACE_NAME": "WOODSTOCK", "PLACELABEL": "Woodstock", "FTYPE_CODE": "place", "FEATSUBTYP": "locality bounded", "HIERARCHY": 8, "STATE": "VIC", "SCALE_USEC": "6", "PFI_CR": "2010-01-01", "UFI_CR": "2011-08-11" }, "geometry": { "type": "Point", "coordinates": [ 145.030427953995314, -37.548222839999973 ] } },
{ "type": "Feature", "properties": { "UFI": 60893, "PFI": 2223, "NAME_ID": 103489, "PLACE_NAME": "YELLINGBO", "PLACELABEL": "Yellingbo", "FTYPE_CODE": "place", "FEATSUBTYP": "locality bounded", "HIERARCHY": 8, "STATE": "VIC", "SCALE_USEC": "6", "PFI_CR": "2010-01-01", "UFI_CR": "2011-08-11" }, "geometry": { "type": "Point", "coordinates": [ 145.509664841999012, -37.810304874999986 ] } },
{ "type": "Feature", "properties": { "UFI": 60897, "PFI": 2227, "NAME_ID": 102000, "PLACE_NAME": "MELBOURNE", "PLACELABEL": "Melbourne", "FTYPE_CODE": "place", "FEATSUBTYP": "locality bounded", "HIERARCHY": 1, "STATE": "VIC", "SCALE_USEC": "1", "PFI_CR": "2010-01-01", "UFI_CR": "2011-08-11" }, "geometry": { "type": "Point", "coordinates": [ 144.975573933994582, -37.817653838000034 ] } },
{ "type": "Feature", "properties": { "UFI": 60905, "PFI": 2235, "NAME_ID": 102044, "PLACE_NAME": "MIDDLE PARK", "PLACELABEL": "Middle Park", "FTYPE_CODE": "place", "FEATSUBTYP": "locality bounded", "HIERARCHY": 8, "STATE": "VIC", "SCALE_USEC": "6", "PFI_CR": "2010-01-01", "UFI_CR": "2011-08-11" }, "geometry": { "type": "Point", "coordinates": [ 144.963277932994401, -37.851686838000063 ] } },
{ "type": "Feature", "properties": { "UFI": 60913, "PFI": 2243, "NAME_ID": 102076, "PLACE_NAME": "MITCHAM", "PLACELABEL": "Mitcham", "FTYPE_CODE": "place", "FEATSUBTYP": "locality bounded", "HIERARCHY": 8, "STATE": "VIC", "SCALE_USEC": "6", "PFI_CR": "2010-01-01", "UFI_CR": "2011-08-11" }, "geometry": { "type": "Point", "coordinates": [ 145.197099895997042, -37.817649854000024 ] } },
{ "type": "Feature", "properties": { "UFI": 60921, "PFI": 2251, "NAME_ID": 102111, "PLACE_NAME": "MONT ALBERT", "PLACELABEL": "Mont Albert", "FTYPE_CODE": "place", "FEATSUBTYP": "locality bounded", "HIERARCHY": 8, "STATE": "VIC", "SCALE_USEC": "6", "PFI_CR": "2010-01-01", "UFI_CR": "2011-08-11" }, "geometry": { "type": "Point", "coordinates": [ 145.109659910996271, -37.816278847000035 ] } },
{ "type": "Feature", "properties": { "UFI": 60927, "PFI": 2257, "NAME_ID": 102142, "PLACE_NAME": "MORDIALLOC", "PLACELABEL": "Mordialloc", "FTYPE_CODE": "place", "FEATSUBTYP": "locality bounded", "HIERARCHY": 7, "STATE": "VIC", "SCALE_USEC": "5", "PFI_CR": "2010-01-01", "UFI_CR": "2011-08-11" }, "geometry": { "type": "Point", "coordinates": [ 145.092450893996073, -37.998940847000057 ] } },
{ "type": "Feature", "properties": { "UFI": 60942, "PFI": 2272, "NAME_ID": 102205, "PLACE_NAME": "MOUNT WAVERLEY", "PLACELABEL": "Mount Waverley", "FTYPE_CODE": "place", "FEATSUBTYP": "locality bounded", "HIERARCHY": 8, "STATE": "VIC", "SCALE_USEC": "6", "PFI_CR": "2010-01-01", "UFI_CR": "2011-08-11" }, "geometry": { "type": "Point", "coordinates": [ 145.130846900996431, -37.876996849000037 ] } },
{ "type": "Feature", "properties": { "UFI": 60962, "PFI": 2292, "NAME_ID": 102295, "PLACE_NAME": "NARRE WARREN", "PLACELABEL": "Narre Warren", "FTYPE_CODE": "place", "FEATSUBTYP": "locality bounded", "HIERARCHY": 8, "STATE": "VIC", "SCALE_USEC": "6", "PFI_CR": "2010-01-01", "UFI_CR": "2011-08-11" }, "geometry": { "type": "Point", "coordinates": [ 145.307034852997958, -38.027459862000015 ] } },
{ "type": "Feature", "properties": { "UFI": 60400, "PFI": 1730, "NAME_ID": 100132, "PLACE_NAME": "ALBANVALE", "PLACELABEL": "Albanvale", "FTYPE_CODE": "place", "FEATSUBTYP": "locality bounded", "HIERARCHY": 8, "STATE": "VIC", "SCALE_USEC": "6", "PFI_CR": "2010-01-01", "UFI_CR": "2011-08-11" }, "geometry": { "type": "Point", "coordinates": [ 144.765296977990744, -37.746262824000119 ] } },
{ "type": "Feature", "properties": { "UFI": 60976, "PFI": 2306, "NAME_ID": 102360, "PLACE_NAME": "NOBLE PARK", "PLACELABEL": "Noble Park", "FTYPE_CODE": "place", "FEATSUBTYP": "locality bounded", "HIERARCHY": 8, "STATE": "VIC", "SCALE_USEC": "6", "PFI_CR": "2010-01-01", "UFI_CR": "2011-08-11" }, "geometry": { "type": "Point", "coordinates": [ 145.176377882996917, -37.966928853000027 ] } },
{ "type": "Feature", "properties": { "UFI": 60980, "PFI": 2310, "NAME_ID": 102379, "PLACE_NAME": "NORTH WARRANDYTE", "PLACELABEL": "North Warrandyte", "FTYPE_CODE": "place", "FEATSUBTYP": "locality bounded", "HIERARCHY": 8, "STATE": "VIC", "SCALE_USEC": "6", "PFI_CR": "2010-01-01", "UFI_CR": "2011-08-11" }, "geometry": { "type": "Point", "coordinates": [ 145.208955061997187, -37.723282911999988 ] } },
{ "type": "Feature", "properties": { "UFI": 60988, "PFI": 2318, "NAME_ID": 102414, "PLACE_NAME": "OAKLEIGH EAST", "PLACELABEL": "Oakleigh East", "FTYPE_CODE": "place", "FEATSUBTYP": "locality bounded", "HIERARCHY": 8, "STATE": "VIC", "SCALE_USEC": "6", "PFI_CR": "2010-01-01", "UFI_CR": "2011-08-11" }, "geometry": { "type": "Point", "coordinates": [ 145.106414126996242, -37.898645906000027 ] } },
{ "type": "Feature", "properties": { "UFI": 60998, "PFI": 2328, "NAME_ID": 102449, "PLACE_NAME": "PANTON HILL", "PLACELABEL": "Panton Hill", "FTYPE_CODE": "place", "FEATSUBTYP": "locality bounded", "HIERARCHY": 8, "STATE": "VIC", "SCALE_USEC": "6", "PFI_CR": "2010-01-01", "UFI_CR": "2011-08-11" }, "geometry": { "type": "Point", "coordinates": [ 145.239896907997462, -37.641656855 ] } },
{ "type": "Feature", "properties": { "UFI": 60999, "PFI": 2329, "NAME_ID": 102453, "PLACE_NAME": "PARK ORCHARDS", "PLACELABEL": "Park Orchards", "FTYPE_CODE": "place", "FEATSUBTYP": "locality bounded", "HIERARCHY": 8, "STATE": "VIC", "SCALE_USEC": "6", "PFI_CR": "2010-01-01", "UFI_CR": "2011-08-11" }, "geometry": { "type": "Point", "coordinates": [ 145.216287896997216, -37.775584855000027 ] } },
{ "type": "Feature", "properties": { "UFI": 61000, "PFI": 2330, "NAME_ID": 102461, "PLACE_NAME": "PASCOE VALE", "PLACELABEL": "Pascoe Vale", "FTYPE_CODE": "place", "FEATSUBTYP": "locality bounded", "HIERARCHY": 8, "STATE": "VIC", "SCALE_USEC": "6", "PFI_CR": "2010-01-01", "UFI_CR": "2011-08-11" }, "geometry": { "type": "Point", "coordinates": [ 144.941739949994059, -37.726948835000044 ] } },
{ "type": "Feature", "properties": { "UFI": 61001, "PFI": 2331, "NAME_ID": 102468, "PLACE_NAME": "PATTERSON LAKES", "PLACELABEL": "Patterson Lakes", "FTYPE_CODE": "place", "FEATSUBTYP": "locality bounded", "HIERARCHY": 8, "STATE": "VIC", "SCALE_USEC": "6", "PFI_CR": "2010-01-01", "UFI_CR": "2011-08-11" }, "geometry": { "type": "Point", "coordinates": [ 145.14536587699655, -38.068275852000035 ] } },
{ "type": "Feature", "properties": { "UFI": 61011, "PFI": 2341, "NAME_ID": 102513, "PLACE_NAME": "PLENTY", "PLACELABEL": "Plenty", "FTYPE_CODE": "place", "FEATSUBTYP": "locality bounded", "HIERARCHY": 8, "STATE": "VIC", "SCALE_USEC": "6", "PFI_CR": "2010-01-01", "UFI_CR": "2011-08-11" }, "geometry": { "type": "Point", "coordinates": [ 145.116814925996323, -37.668594847 ] } },
{ "type": "Feature", "properties": { "UFI": 61015, "PFI": 2345, "NAME_ID": 21631, "PLACE_NAME": "PORT BELLARINE", "PLACELABEL": "Port Bellarine", "FTYPE_CODE": "place", "FEATSUBTYP": "locality unbounded", "HIERARCHY": 8, "STATE": "VIC", "SCALE_USEC": "6", "PFI_CR": "2010-01-01", "UFI_CR": "2011-08-11" }, "geometry": { "type": "Point", "coordinates": [ 144.617217964986963, -38.115519816000251 ] } },
{ "type": "Feature", "properties": { "UFI": 61020, "PFI": 2350, "NAME_ID": 102553, "PLACE_NAME": "PRAHRAN", "PLACELABEL": "Prahran", "FTYPE_CODE": "place", "FEATSUBTYP": "locality bounded", "HIERARCHY": 8, "STATE": "VIC", "SCALE_USEC": "6", "PFI_CR": "2010-01-01", "UFI_CR": "2011-08-11" }, "geometry": { "type": "Point", "coordinates": [ 144.99359486099479, -37.848552082000062 ] } },
{ "type": "Feature", "properties": { "UFI": 61021, "PFI": 2351, "NAME_ID": 21820, "PLACE_NAME": "PRETTY HILL", "PLACELABEL": "Pretty Hill", "FTYPE_CODE": "place", "FEATSUBTYP": "locality unbounded", "HIERARCHY": 8, "STATE": "VIC", "SCALE_USEC": "6", "PFI_CR": "2010-01-01", "UFI_CR": "2011-08-11" }, "geometry": { "type": "Point", "coordinates": [ 145.204931908997111, -37.681685853000012 ] } },
{ "type": "Feature", "properties": { "UFI": 61035, "PFI": 2365, "NAME_ID": 102606, "PLACE_NAME": "RESERVOIR", "PLACELABEL": "Reservoir", "FTYPE_CODE": "place", "FEATSUBTYP": "locality bounded", "HIERARCHY": 8, "STATE": "VIC", "SCALE_USEC": "6", "PFI_CR": "2010-01-01", "UFI_CR": "2011-08-11" }, "geometry": { "type": "Point", "coordinates": [ 145.0124629389951, -37.712842840000015 ] } },
{ "type": "Feature", "properties": { "UFI": 61041, "PFI": 2371, "NAME_ID": 102639, "PLACE_NAME": "ROCKBANK", "PLACELABEL": "Rockbank", "FTYPE_CODE": "place", "FEATSUBTYP": "locality bounded", "HIERARCHY": 8, "STATE": "VIC", "SCALE_USEC": "6", "PFI_CR": "2010-01-01", "UFI_CR": "2011-08-11" }, "geometry": { "type": "Point", "coordinates": [ 144.654689998988061, -37.72699181600013 ] } },
{ "type": "Feature", "properties": { "UFI": 61303, "PFI": 2633, "NAME_ID": 100757, "PLACE_NAME": "CLARINDA", "PLACELABEL": "Clarinda", "FTYPE_CODE": "place", "FEATSUBTYP": "locality bounded", "HIERARCHY": 8, "STATE": "VIC", "SCALE_USEC": "6", "PFI_CR": "2010-01-01", "UFI_CR": "2011-08-11" }, "geometry": { "type": "Point", "coordinates": [ 145.105502898996178, -37.934266848 ] } },
{ "type": "Feature", "properties": { "UFI": 61096, "PFI": 2426, "NAME_ID": 101381, "PLACE_NAME": "GREENSBOROUGH", "PLACELABEL": "Greensborough", "FTYPE_CODE": "place", "FEATSUBTYP": "locality bounded", "HIERARCHY": 7, "STATE": "VIC", "SCALE_USEC": "5", "PFI_CR": "2010-01-01", "UFI_CR": "2011-08-11" }, "geometry": { "type": "Point", "coordinates": [ 145.106808923996255, -37.705383847 ] } },
{ "type": "Feature", "properties": { "UFI": 61111, "PFI": 2441, "NAME_ID": 101437, "PLACE_NAME": "HAWTHORN EAST", "PLACELABEL": "Hawthorn East", "FTYPE_CODE": "place", "FEATSUBTYP": "locality bounded", "HIERARCHY": 8, "STATE": "VIC", "SCALE_USEC": "6", "PFI_CR": "2010-01-01", "UFI_CR": "2011-08-11" }, "geometry": { "type": "Point", "coordinates": [ 145.050209919995552, -37.830628843 ] } },
{ "type": "Feature", "properties": { "UFI": 61114, "PFI": 2444, "NAME_ID": 101451, "PLACE_NAME": "HEATHMONT", "PLACELABEL": "Heathmont", "FTYPE_CODE": "place", "FEATSUBTYP": "locality bounded", "HIERARCHY": 8, "STATE": "VIC", "SCALE_USEC": "6", "PFI_CR": "2010-01-01", "UFI_CR": "2011-08-11" }, "geometry": { "type": "Point", "coordinates": [ 145.242246885997474, -37.830047857 ] } },
{ "type": "Feature", "properties": { "UFI": 61265, "PFI": 2595, "NAME_ID": 4135, "PLACE_NAME": "BURLEIGH", "PLACELABEL": "Burleigh", "FTYPE_CODE": "place", "FEATSUBTYP": "locality unbounded", "HIERARCHY": 8, "STATE": "VIC", "SCALE_USEC": "6", "PFI_CR": "2010-01-01", "UFI_CR": "2011-08-11" }, "geometry": { "type": "Point", "coordinates": [ 145.442943848998624, -37.849996871000023 ] } },
{ "type": "Feature", "properties": { "UFI": 61269, "PFI": 2599, "NAME_ID": 100602, "PLACE_NAME": "BURWOOD EAST", "PLACELABEL": "Burwood East", "FTYPE_CODE": "place", "FEATSUBTYP": "locality bounded", "HIERARCHY": 8, "STATE": "VIC", "SCALE_USEC": "6", "PFI_CR": "2010-01-01", "UFI_CR": "2011-08-11" }, "geometry": { "type": "Point", "coordinates": [ 145.14966189999663, -37.85206085 ] } },
{ "type": "Feature", "properties": { "UFI": 61286, "PFI": 2616, "NAME_ID": 100681, "PLACE_NAME": "CARLTON NORTH", "PLACELABEL": "Carlton North", "FTYPE_CODE": "place", "FEATSUBTYP": "locality bounded", "HIERARCHY": 8, "STATE": "VIC", "SCALE_USEC": "6", "PFI_CR": "2010-01-01", "UFI_CR": "2011-08-11" }, "geometry": { "type": "Point", "coordinates": [ 144.974139937994607, -37.786988838000021 ] } },
{ "type": "Feature", "properties": { "UFI": 61292, "PFI": 2622, "NAME_ID": 100711, "PLACE_NAME": "CAULFIELD SOUTH", "PLACELABEL": "Caulfield South", "FTYPE_CODE": "place", "FEATSUBTYP": "locality bounded", "HIERARCHY": 8, "STATE": "VIC", "SCALE_USEC": "6", "PFI_CR": "2010-01-01", "UFI_CR": "2011-08-11" }, "geometry": { "type": "Point", "coordinates": [ 145.026997916995242, -37.89152284200005 ] } },
{ "type": "Feature", "properties": { "UFI": 61296, "PFI": 2626, "NAME_ID": 5293, "PLACE_NAME": "CHARTWELL", "PLACELABEL": "Chartwell", "FTYPE_CODE": "place", "FEATSUBTYP": "locality unbounded", "HIERARCHY": 8, "STATE": "VIC", "SCALE_USEC": "6", "PFI_CR": "2010-01-01", "UFI_CR": "2011-08-11" }, "geometry": { "type": "Point", "coordinates": [ 144.6400129949877, -37.796085815000161 ] } },
{ "type": "Feature", "properties": { "UFI": 61297, "PFI": 2627, "NAME_ID": 100728, "PLACE_NAME": "CHELTENHAM", "PLACELABEL": "Cheltenham", "FTYPE_CODE": "place", "FEATSUBTYP": "locality bounded", "HIERARCHY": 8, "STATE": "VIC", "SCALE_USEC": "6", "PFI_CR": "2010-01-01", "UFI_CR": "2011-08-11" }, "geometry": { "type": "Point", "coordinates": [ 145.068234901995822, -37.96700484600003 ] } },
{ "type": "Feature", "properties": { "UFI": 61301, "PFI": 2631, "NAME_ID": 100747, "PLACE_NAME": "CHIRNSIDE PARK", "PLACELABEL": "Chirnside Park", "FTYPE_CODE": "place", "FEATSUBTYP": "locality bounded", "HIERARCHY": 8, "STATE": "VIC", "SCALE_USEC": "6", "PFI_CR": "2010-01-01", "UFI_CR": "2011-08-11" }, "geometry": { "type": "Point", "coordinates": [ 145.326913879998074, -37.753775862 ] } },
{ "type": "Feature", "properties": { "UFI": 61304, "PFI": 2634, "NAME_ID": 100761, "PLACE_NAME": "CLAYTON", "PLACELABEL": "Clayton", "FTYPE_CODE": "place", "FEATSUBTYP": "locality bounded", "HIERARCHY": 8, "STATE": "VIC", "SCALE_USEC": "6", "PFI_CR": "2010-01-01", "UFI_CR": "2011-08-11" }, "geometry": { "type": "Point", "coordinates": [ 145.123997896996428, -37.922847849 ] } },
{ "type": "Feature", "properties": { "UFI": 61311, "PFI": 2641, "NAME_ID": 100793, "PLACE_NAME": "COBURG NORTH", "PLACELABEL": "Coburg North", "FTYPE_CODE": "place", "FEATSUBTYP": "locality bounded", "HIERARCHY": 8, "STATE": "VIC", "SCALE_USEC": "6", "PFI_CR": "2010-01-01", "UFI_CR": "2011-08-11" }, "geometry": { "type": "Point", "coordinates": [ 144.959909946994316, -37.726363837 ] } },
{ "type": "Feature", "properties": { "UFI": 61320, "PFI": 2650, "NAME_ID": 100822, "PLACE_NAME": "COOLAROO", "PLACELABEL": "Coolaroo", "FTYPE_CODE": "place", "FEATSUBTYP": "locality bounded", "HIERARCHY": 8, "STATE": "VIC", "SCALE_USEC": "6", "PFI_CR": "2010-01-01", "UFI_CR": "2011-08-11" }, "geometry": { "type": "Point", "coordinates": [ 144.935656291994007, -37.653611218000052 ] } },
{ "type": "Feature", "properties": { "UFI": 61328, "PFI": 2658, "NAME_ID": 6396, "PLACE_NAME": "COUANGAULT", "PLACELABEL": "Couangault", "FTYPE_CODE": "place", "FEATSUBTYP": "locality unbounded", "HIERARCHY": 8, "STATE": "VIC", "SCALE_USEC": "6", "PFI_CR": "2010-01-01", "UFI_CR": "2011-08-11" }, "geometry": { "type": "Point", "coordinates": [ 144.606286027986641, -37.538579812000123 ] } },
{ "type": "Feature", "properties": { "UFI": 61330, "PFI": 2660, "NAME_ID": 100864, "PLACE_NAME": "CRAIGIEBURN", "PLACELABEL": "Craigieburn", "FTYPE_CODE": "place", "FEATSUBTYP": "locality bounded", "HIERARCHY": 6, "STATE": "VIC", "SCALE_USEC": "4", "PFI_CR": "2010-01-01", "UFI_CR": "2011-08-11" }, "geometry": { "type": "Point", "coordinates": [ 144.934073964993928, -37.594338834000041 ] } },
{ "type": "Feature", "properties": { "UFI": 61342, "PFI": 2672, "NAME_ID": 100920, "PLACE_NAME": "DANDENONG", "PLACELABEL": "Dandenong", "FTYPE_CODE": "place", "FEATSUBTYP": "locality bounded", "HIERARCHY": 5, "STATE": "VIC", "SCALE_USEC": "4", "PFI_CR": "2010-01-01", "UFI_CR": "2011-08-11" }, "geometry": { "type": "Point", "coordinates": [ 145.213470873997267, -37.986422856000011 ] } },
{ "type": "Feature", "properties": { "UFI": 61359, "PFI": 2689, "NAME_ID": 100982, "PLACE_NAME": "DIXONS CREEK", "PLACELABEL": "Dixons Creek", "FTYPE_CODE": "place", "FEATSUBTYP": "locality bounded", "HIERARCHY": 8, "STATE": "VIC", "SCALE_USEC": "6", "PFI_CR": "2010-01-01", "UFI_CR": "2011-08-11" }, "geometry": { "type": "Point", "coordinates": [ 145.418680880998579, -37.601830868000022 ] } },
{ "type": "Feature", "properties": { "UFI": 61363, "PFI": 2693, "NAME_ID": 101000, "PLACE_NAME": "DOREEN", "PLACELABEL": "Doreen", "FTYPE_CODE": "place", "FEATSUBTYP": "locality bounded", "HIERARCHY": 8, "STATE": "VIC", "SCALE_USEC": "6", "PFI_CR": "2010-01-01", "UFI_CR": "2011-08-11" }, "geometry": { "type": "Point", "coordinates": [ 145.137678928996564, -37.604938848 ] } },
{ "type": "Feature", "properties": { "UFI": 61364, "PFI": 2694, "NAME_ID": 101005, "PLACE_NAME": "DOVETON", "PLACELABEL": "Doveton", "FTYPE_CODE": "place", "FEATSUBTYP": "locality bounded", "HIERARCHY": 8, "STATE": "VIC", "SCALE_USEC": "6", "PFI_CR": "2010-01-01", "UFI_CR": "2011-08-11" }, "geometry": { "type": "Point", "coordinates": [ 145.239563868997465, -37.990420858 ] } },
{ "type": "Feature", "properties": { "UFI": 61382, "PFI": 2712, "NAME_ID": 101105, "PLACE_NAME": "ELTHAM NORTH", "PLACELABEL": "Eltham North", "FTYPE_CODE": "place", "FEATSUBTYP": "locality bounded", "HIERARCHY": 8, "STATE": "VIC", "SCALE_USEC": "6", "PFI_CR": "2010-01-01", "UFI_CR": "2011-08-11" }, "geometry": { "type": "Point", "coordinates": [ 145.144428917996521, -37.697871849 ] } },
{ "type": "Feature", "properties": { "UFI": 61385, "PFI": 2715, "NAME_ID": 101119, "PLACE_NAME": "EPPING", "PLACELABEL": "Epping", "FTYPE_CODE": "place", "FEATSUBTYP": "locality bounded", "HIERARCHY": 7, "STATE": "VIC", "SCALE_USEC": "5", "PFI_CR": "2010-01-01", "UFI_CR": "2011-08-11" }, "geometry": { "type": "Point", "coordinates": [ 145.030125942995284, -37.645548840999986 ] } },
{ "type": "Feature", "properties": { "UFI": 61387, "PFI": 2717, "NAME_ID": 101129, "PLACE_NAME": "ESSENDON WEST", "PLACELABEL": "Essendon West", "FTYPE_CODE": "place", "FEATSUBTYP": "locality bounded", "HIERARCHY": 8, "STATE": "VIC", "SCALE_USEC": "6", "PFI_CR": "2010-01-01", "UFI_CR": "2011-08-11" }, "geometry": { "type": "Point", "coordinates": [ 144.886588956993165, -37.751205832000068 ] } },
{ "type": "Feature", "properties": { "UFI": 61391, "PFI": 2721, "NAME_ID": 101145, "PLACE_NAME": "FAIRFIELD", "PLACELABEL": "Fairfield", "FTYPE_CODE": "place", "FEATSUBTYP": "locality bounded", "HIERARCHY": 8, "STATE": "VIC", "SCALE_USEC": "6", "PFI_CR": "2010-01-01", "UFI_CR": "2011-08-11" }, "geometry": { "type": "Point", "coordinates": [ 145.01871163099517, -37.778422133 ] } },
{ "type": "Feature", "properties": { "UFI": 61393, "PFI": 2723, "NAME_ID": 101155, "PLACE_NAME": "FAWKNER", "PLACELABEL": "Fawkner", "FTYPE_CODE": "place", "FEATSUBTYP": "locality bounded", "HIERARCHY": 8, "STATE": "VIC", "SCALE_USEC": "6", "PFI_CR": "2010-01-01", "UFI_CR": "2011-08-11" }, "geometry": { "type": "Point", "coordinates": [ 144.968389946994506, -37.706683837000014 ] } },
{ "type": "Feature", "properties": { "UFI": 61395, "PFI": 2725, "NAME_ID": 101165, "PLACE_NAME": "FERNTREE GULLY", "PLACELABEL": "Ferntree Gully", "FTYPE_CODE": "place", "FEATSUBTYP": "locality bounded", "HIERARCHY": 7, "STATE": "VIC", "SCALE_USEC": "5", "PFI_CR": "2010-01-01", "UFI_CR": "2011-08-11" }, "geometry": { "type": "Point", "coordinates": [ 145.28314487399777, -37.879316860000017 ] } },
{ "type": "Feature", "properties": { "UFI": 61397, "PFI": 2727, "NAME_ID": 9100, "PLACE_NAME": "FISHERMENS BEND", "PLACELABEL": "Fishermens Bend", "FTYPE_CODE": "place", "FEATSUBTYP": "locality unbounded", "HIERARCHY": 8, "STATE": "VIC", "SCALE_USEC": "6", "PFI_CR": "2010-01-01", "UFI_CR": "2011-08-11" }, "geometry": { "type": "Point", "coordinates": [ 144.910650944993563, -37.823728834000036 ] } },
{ "type": "Feature", "properties": { "UFI": 61400, "PFI": 2730, "NAME_ID": 101188, "PLACE_NAME": "FOOTSCRAY", "PLACELABEL": "Footscray", "FTYPE_CODE": "place", "FEATSUBTYP": "locality bounded", "HIERARCHY": 8, "STATE": "VIC", "SCALE_USEC": "6", "PFI_CR": "2010-01-01", "UFI_CR": "2011-08-11" }, "geometry": { "type": "Point", "coordinates": [ 144.899628123993381, -37.800121066000059 ] } },
{ "type": "Feature", "properties": { "UFI": 61128, "PFI": 2458, "NAME_ID": 101519, "PLACE_NAME": "HURSTBRIDGE", "PLACELABEL": "Hurstbridge", "FTYPE_CODE": "place", "FEATSUBTYP": "locality bounded", "HIERARCHY": 6, "STATE": "VIC", "SCALE_USEC": "4", "PFI_CR": "2010-01-01", "UFI_CR": "2011-08-11" }, "geometry": { "type": "Point", "coordinates": [ 145.194622915997058, -37.639169852 ] } },
{ "type": "Feature", "properties": { "UFI": 61135, "PFI": 2465, "NAME_ID": 101549, "PLACE_NAME": "IVANHOE EAST", "PLACELABEL": "Ivanhoe East", "FTYPE_CODE": "place", "FEATSUBTYP": "locality bounded", "HIERARCHY": 8, "STATE": "VIC", "SCALE_USEC": "6", "PFI_CR": "2010-01-01", "UFI_CR": "2011-08-11" }, "geometry": { "type": "Point", "coordinates": [ 145.066501922995741, -37.772320844000035 ] } },
{ "type": "Feature", "properties": { "UFI": 61158, "PFI": 2488, "NAME_ID": 101624, "PLACE_NAME": "KEILOR", "PLACELABEL": "Keilor", "FTYPE_CODE": "place", "FEATSUBTYP": "locality bounded", "HIERARCHY": 7, "STATE": "VIC", "SCALE_USEC": "5", "PFI_CR": "2010-01-01", "UFI_CR": "2011-08-11" }, "geometry": { "type": "Point", "coordinates": [ 144.828602970992051, -37.715905828000061 ] } },
{ "type": "Feature", "properties": { "UFI": 61169, "PFI": 2499, "NAME_ID": 101669, "PLACE_NAME": "KILSYTH", "PLACELABEL": "Kilsyth", "FTYPE_CODE": "place", "FEATSUBTYP": "locality bounded", "HIERARCHY": 8, "STATE": "VIC", "SCALE_USEC": "6", "PFI_CR": "2010-01-01", "UFI_CR": "2011-08-11" }, "geometry": { "type": "Point", "coordinates": [ 145.31559787699797, -37.802281862000015 ] } },
{ "type": "Feature", "properties": { "UFI": 61218, "PFI": 2548, "NAME_ID": 101894, "PLACE_NAME": "LOWER PLENTY", "PLACELABEL": "Lower Plenty", "FTYPE_CODE": "place", "FEATSUBTYP": "locality bounded", "HIERARCHY": 8, "STATE": "VIC", "SCALE_USEC": "6", "PFI_CR": "2010-01-01", "UFI_CR": "2011-08-11" }, "geometry": { "type": "Point", "coordinates": [ 145.119891918996387, -37.726321847999984 ] } },
{ "type": "Feature", "properties": { "UFI": 61245, "PFI": 2575, "NAME_ID": 100508, "PLACE_NAME": "BROADMEADOWS", "PLACELABEL": "Broadmeadows", "FTYPE_CODE": "place", "FEATSUBTYP": "locality bounded", "HIERARCHY": 7, "STATE": "VIC", "SCALE_USEC": "5", "PFI_CR": "2010-01-01", "UFI_CR": "2011-08-11" }, "geometry": { "type": "Point", "coordinates": [ 144.924750956993762, -37.685195834000019 ] } },
{ "type": "Feature", "properties": { "UFI": 61250, "PFI": 2580, "NAME_ID": 100527, "PLACE_NAME": "BRUNSWICK EAST", "PLACELABEL": "Brunswick East", "FTYPE_CODE": "place", "FEATSUBTYP": "locality bounded", "HIERARCHY": 8, "STATE": "VIC", "SCALE_USEC": "6", "PFI_CR": "2010-01-01", "UFI_CR": "2011-08-11" }, "geometry": { "type": "Point", "coordinates": [ 144.97914693899466, -37.769952838000016 ] } },
{ "type": "Feature", "properties": { "UFI": 61257, "PFI": 2587, "NAME_ID": 100555, "PLACE_NAME": "BULLEEN", "PLACELABEL": "Bulleen", "FTYPE_CODE": "place", "FEATSUBTYP": "locality bounded", "HIERARCHY": 8, "STATE": "VIC", "SCALE_USEC": "6", "PFI_CR": "2010-01-01", "UFI_CR": "2011-08-11" }, "geometry": { "type": "Point", "coordinates": [ 145.09040391899606, -37.770006846 ] } },
{ "type": "Feature", "properties": { "UFI": 61412, "PFI": 2742, "NAME_ID": 100621, "PLACE_NAME": "CALDER PARK", "PLACELABEL": "Calder Park", "FTYPE_CODE": "place", "FEATSUBTYP": "locality bounded", "HIERARCHY": 9, "STATE": "VIC", "SCALE_USEC": "7", "PFI_CR": "2010-01-01", "UFI_CR": "2011-08-11" }, "geometry": { "type": "Point", "coordinates": [ 144.755952779990537, -37.668400139000084 ] } },
{ "type": "Feature", "properties": { "UFI": 61413, "PFI": 2743, "NAME_ID": 101630, "PLACE_NAME": "KEILOR NORTH", "PLACELABEL": "Keilor North", "FTYPE_CODE": "place", "FEATSUBTYP": "locality bounded", "HIERARCHY": 9, "STATE": "VIC", "SCALE_USEC": "7", "PFI_CR": "2010-01-01", "UFI_CR": "2011-08-11" }, "geometry": { "type": "Point", "coordinates": [ 144.79027117999135, -37.686765133000037 ] } },
{ "type": "Feature", "properties": { "UFI": 61414, "PFI": 2744, "NAME_ID": 101629, "PLACE_NAME": "KEILOR LODGE", "PLACELABEL": "Keilor Lodge", "FTYPE_CODE": "place", "FEATSUBTYP": "locality bounded", "HIERARCHY": 9, "STATE": "VIC", "SCALE_USEC": "7", "PFI_CR": "2010-01-01", "UFI_CR": "2011-08-11" }, "geometry": { "type": "Point", "coordinates": [ 144.80298252699157, -37.699214409000085 ] } },
{ "type": "Feature", "properties": { "UFI": 61415, "PFI": 2745, "NAME_ID": 102711, "PLACE_NAME": "SEAHOLME", "PLACELABEL": "Seaholme", "FTYPE_CODE": "place", "FEATSUBTYP": "locality bounded", "HIERARCHY": 9, "STATE": "VIC", "SCALE_USEC": "7", "PFI_CR": "2010-01-01", "UFI_CR": "2011-08-11" }, "geometry": { "type": "Point", "coordinates": [ 144.845537392992441, -37.86593654700004 ] } },
{ "type": "Feature", "properties": { "UFI": 61417, "PFI": 2747, "NAME_ID": 100620, "PLACE_NAME": "CAIRNLEA", "PLACELABEL": "Cairnlea", "FTYPE_CODE": "place", "FEATSUBTYP": "locality bounded", "HIERARCHY": 9, "STATE": "VIC", "SCALE_USEC": "7", "PFI_CR": "2010-01-01", "UFI_CR": "2011-08-11" }, "geometry": { "type": "Point", "coordinates": [ 144.789959372991348, -37.758362675000051 ] } },
{ "type": "Feature", "properties": { "UFI": 61418, "PFI": 2748, "NAME_ID": 101349, "PLACE_NAME": "GOWANBRAE", "PLACELABEL": "Gowanbrae", "FTYPE_CODE": "place", "FEATSUBTYP": "locality bounded", "HIERARCHY": 9, "STATE": "VIC", "SCALE_USEC": "7", "PFI_CR": "2010-01-01", "UFI_CR": "2011-08-11" }, "geometry": { "type": "Point", "coordinates": [ 144.89413720199326, -37.706512382000042 ] } },
{ "type": "Feature", "properties": { "UFI": 61419, "PFI": 2749, "NAME_ID": 103717, "PLACE_NAME": "ESSENDON FIELDS", "PLACELABEL": "Essendon Fields", "FTYPE_CODE": "place", "FEATSUBTYP": "locality bounded", "HIERARCHY": 9, "STATE": "VIC", "SCALE_USEC": "7", "PFI_CR": "2010-01-01", "UFI_CR": "2011-08-11" }, "geometry": { "type": "Point", "coordinates": [ 144.897606223993307, -37.726488999000054 ] } },
{ "type": "Feature", "properties": { "UFI": 61420, "PFI": 2750, "NAME_ID": 100119, "PLACE_NAME": "ABERFELDIE", "PLACELABEL": "Aberfeldie", "FTYPE_CODE": "place", "FEATSUBTYP": "locality bounded", "HIERARCHY": 9, "STATE": "VIC", "SCALE_USEC": "7", "PFI_CR": "2010-01-01", "UFI_CR": "2011-08-11" }, "geometry": { "type": "Point", "coordinates": [ 144.899901119993444, -37.763177383000048 ] } },
{ "type": "Feature", "properties": { "UFI": 61421, "PFI": 2751, "NAME_ID": 100986, "PLACE_NAME": "DOCKLANDS", "PLACELABEL": "Docklands", "FTYPE_CODE": "place", "FEATSUBTYP": "locality bounded", "HIERARCHY": 9, "STATE": "VIC", "SCALE_USEC": "7", "PFI_CR": "2010-01-01", "UFI_CR": "2011-08-11" }, "geometry": { "type": "Point", "coordinates": [ 144.940633464994022, -37.814892653000058 ] } },
{ "type": "Feature", "properties": { "UFI": 61422, "PFI": 2752, "NAME_ID": 102818, "PLACE_NAME": "ST KILDA WEST", "PLACELABEL": "St Kilda West", "FTYPE_CODE": "place", "FEATSUBTYP": "locality bounded", "HIERARCHY": 9, "STATE": "VIC", "SCALE_USEC": "7", "PFI_CR": "2010-01-01", "UFI_CR": "2011-08-11" }, "geometry": { "type": "Point", "coordinates": [ 144.969438030994525, -37.858387763000032 ] } },
{ "type": "Feature", "properties": { "UFI": 61423, "PFI": 2753, "NAME_ID": 103353, "PLACE_NAME": "WINDSOR", "PLACELABEL": "Windsor", "FTYPE_CODE": "place", "FEATSUBTYP": "locality bounded", "HIERARCHY": 9, "STATE": "VIC", "SCALE_USEC": "7", "PFI_CR": "2010-01-01", "UFI_CR": "2011-08-11" }, "geometry": { "type": "Point", "coordinates": [ 144.992696909994834, -37.854368440000059 ] } },
{ "type": "Feature", "properties": { "UFI": 61424, "PFI": 2754, "NAME_ID": 100233, "PLACE_NAME": "BALACLAVA", "PLACELABEL": "Balaclava", "FTYPE_CODE": "place", "FEATSUBTYP": "locality bounded", "HIERARCHY": 9, "STATE": "VIC", "SCALE_USEC": "7", "PFI_CR": "2010-01-01", "UFI_CR": "2011-08-11" }, "geometry": { "type": "Point", "coordinates": [ 144.994674132994902, -37.869199498000029 ] } },
{ "type": "Feature", "properties": { "UFI": 61425, "PFI": 2755, "NAME_ID": 101217, "PLACE_NAME": "GARDENVALE", "PLACELABEL": "Gardenvale", "FTYPE_CODE": "place", "FEATSUBTYP": "locality bounded", "HIERARCHY": 9, "STATE": "VIC", "SCALE_USEC": "7", "PFI_CR": "2010-01-01", "UFI_CR": "2011-08-11" }, "geometry": { "type": "Point", "coordinates": [ 145.007461186995073, -37.89758855800001 ] } },
{ "type": "Feature", "properties": { "UFI": 61426, "PFI": 2756, "NAME_ID": 100708, "PLACE_NAME": "CAULFIELD", "PLACELABEL": "Caulfield", "FTYPE_CODE": "place", "FEATSUBTYP": "locality bounded", "HIERARCHY": 9, "STATE": "VIC", "SCALE_USEC": "7", "PFI_CR": "2010-01-01", "UFI_CR": "2011-08-11" }, "geometry": { "type": "Point", "coordinates": [ 145.021757443995199, -37.886497892000037 ] } },
{ "type": "Feature", "properties": { "UFI": 61428, "PFI": 2758, "NAME_ID": 102112, "PLACE_NAME": "MONT ALBERT NORTH", "PLACELABEL": "Mont Albert North", "FTYPE_CODE": "place", "FEATSUBTYP": "locality bounded", "HIERARCHY": 9, "STATE": "VIC", "SCALE_USEC": "7", "PFI_CR": "2010-01-01", "UFI_CR": "2011-08-11" }, "geometry": { "type": "Point", "coordinates": [ 145.107497903996233, -37.808575822000023 ] } },
{ "type": "Feature", "properties": { "UFI": 61429, "PFI": 2759, "NAME_ID": 100153, "PLACE_NAME": "ALPHINGTON", "PLACELABEL": "Alphington", "FTYPE_CODE": "place", "FEATSUBTYP": "locality bounded", "HIERARCHY": 9, "STATE": "VIC", "SCALE_USEC": "7", "PFI_CR": "2010-01-01", "UFI_CR": "2011-08-11" }, "geometry": { "type": "Point", "coordinates": [ 145.031768152995284, -37.780103709 ] } },
{ "type": "Feature", "properties": { "UFI": 61430, "PFI": 2760, "NAME_ID": 103517, "PLACE_NAME": "SOUTH WHARF", "PLACELABEL": "South Wharf", "FTYPE_CODE": "place", "FEATSUBTYP": "locality bounded", "HIERARCHY": 9, "STATE": "VIC", "SCALE_USEC": "7", "PFI_CR": "2010-01-01", "UFI_CR": "2011-08-11" }, "geometry": { "type": "Point", "coordinates": [ 144.952384869994233, -37.824299887000016 ] } },
{ "type": "Feature", "properties": { "UFI": 61431, "PFI": 2761, "NAME_ID": 101415, "PLACE_NAME": "HAMPTON EAST", "PLACELABEL": "Hampton East", "FTYPE_CODE": "place", "FEATSUBTYP": "locality bounded", "HIERARCHY": 9, "STATE": "VIC", "SCALE_USEC": "7", "PFI_CR": "2010-01-01", "UFI_CR": "2011-08-11" }, "geometry": { "type": "Point", "coordinates": [ 145.031309677995353, -37.940417068 ] } },
{ "type": "Feature", "properties": { "UFI": 61435, "PFI": 2765, "NAME_ID": 102718, "PLACE_NAME": "SEDDON", "PLACELABEL": "Seddon", "FTYPE_CODE": "place", "FEATSUBTYP": "locality bounded", "HIERARCHY": 9, "STATE": "VIC", "SCALE_USEC": "7", "PFI_CR": "2010-01-01", "UFI_CR": "2011-08-11" }, "geometry": { "type": "Point", "coordinates": [ 144.891784016993284, -37.806839366000062 ] } },
{ "type": "Feature", "properties": { "UFI": 61436, "PFI": 2766, "NAME_ID": 101683, "PLACE_NAME": "KINGSVILLE", "PLACELABEL": "Kingsville", "FTYPE_CODE": "place", "FEATSUBTYP": "locality bounded", "HIERARCHY": 9, "STATE": "VIC", "SCALE_USEC": "7", "PFI_CR": "2010-01-01", "UFI_CR": "2011-08-11" }, "geometry": { "type": "Point", "coordinates": [ 144.880162818993028, -37.80580199000007 ] } },
{ "type": "Feature", "properties": { "UFI": 61478, "PFI": 2808, "NAME_ID": 101670, "PLACE_NAME": "KILSYTH SOUTH", "PLACELABEL": "Kilsyth South", "FTYPE_CODE": "place", "FEATSUBTYP": "locality bounded", "HIERARCHY": 9, "STATE": "VIC", "SCALE_USEC": "7", "PFI_CR": "2010-01-01", "UFI_CR": "2011-08-11" }, "geometry": { "type": "Point", "coordinates": [ 145.309215149997982, -37.826639494 ] } },
{ "type": "Feature", "properties": { "UFI": 61479, "PFI": 2809, "NAME_ID": 103240, "PLACE_NAME": "WARRANWOOD", "PLACELABEL": "Warranwood", "FTYPE_CODE": "place", "FEATSUBTYP": "locality bounded", "HIERARCHY": 9, "STATE": "VIC", "SCALE_USEC": "7", "PFI_CR": "2010-01-01", "UFI_CR": "2011-08-11" }, "geometry": { "type": "Point", "coordinates": [ 145.247732308997513, -37.774580856999982 ] } },
{ "type": "Feature", "properties": { "UFI": 61484, "PFI": 2814, "NAME_ID": 101257, "PLACE_NAME": "GISBORNE SOUTH", "PLACELABEL": "Gisborne South", "FTYPE_CODE": "place", "FEATSUBTYP": "locality bounded", "HIERARCHY": 9, "STATE": "VIC", "SCALE_USEC": "7", "PFI_CR": "2010-01-01", "UFI_CR": "2011-08-11" }, "geometry": { "type": "Point", "coordinates": [ 144.639684552987575, -37.554916006000127 ] } },
{ "type": "Feature", "properties": { "UFI": 61490, "PFI": 2820, "NAME_ID": 103819, "PLACE_NAME": "DEEPDENE", "PLACELABEL": "Deepdene", "FTYPE_CODE": "place", "FEATSUBTYP": "locality bounded", "HIERARCHY": 8, "STATE": "VIC", "SCALE_USEC": "6", "PFI_CR": "2010-01-01", "UFI_CR": "2011-08-11" }, "geometry": { "type": "Point", "coordinates": [ 145.066203268995764, -37.810340719000024 ] } },
{ "type": "Feature", "properties": { "UFI": 61495, "PFI": 2825, "NAME_ID": 100133, "PLACE_NAME": "ALBERT PARK", "PLACELABEL": "Albert Park", "FTYPE_CODE": "place", "FEATSUBTYP": "locality bounded", "HIERARCHY": 8, "STATE": "VIC", "SCALE_USEC": "6", "PFI_CR": "2010-01-01", "UFI_CR": "2011-08-11" }, "geometry": { "type": "Point", "coordinates": [ 144.949895935994192, -37.842442837000057 ] } },
{ "type": "Feature", "properties": { "UFI": 61500, "PFI": 2830, "NAME_ID": 280, "PLACE_NAME": "ALTONA EAST", "PLACELABEL": "Altona East", "FTYPE_CODE": "place", "FEATSUBTYP": "locality unbounded", "HIERARCHY": 8, "STATE": "VIC", "SCALE_USEC": "6", "PFI_CR": "2010-01-01", "UFI_CR": "2011-08-11" }, "geometry": { "type": "Point", "coordinates": [ 144.861434951992749, -37.836362831000081 ] } },
{ "type": "Feature", "properties": { "UFI": 61518, "PFI": 2848, "NAME_ID": 100225, "PLACE_NAME": "BADGER CREEK", "PLACELABEL": "Badger Creek", "FTYPE_CODE": "place", "FEATSUBTYP": "locality bounded", "HIERARCHY": 8, "STATE": "VIC", "SCALE_USEC": "6", "PFI_CR": "2010-01-01", "UFI_CR": "2011-08-11" }, "geometry": { "type": "Point", "coordinates": [ 145.538269850999086, -37.684486877000033 ] } },
{ "type": "Feature", "properties": { "UFI": 61540, "PFI": 2870, "NAME_ID": 100310, "PLACE_NAME": "BAYSWATER NORTH", "PLACELABEL": "Bayswater North", "FTYPE_CODE": "place", "FEATSUBTYP": "locality bounded", "HIERARCHY": 8, "STATE": "VIC", "SCALE_USEC": "6", "PFI_CR": "2010-01-01", "UFI_CR": "2011-08-11" }, "geometry": { "type": "Point", "coordinates": [ 145.279813879997761, -37.826998859000014 ] } },
{ "type": "Feature", "properties": { "UFI": 61541, "PFI": 2871, "NAME_ID": 1611, "PLACE_NAME": "BEAGLEYS BRIDGE", "PLACELABEL": "Beagleys Bridge", "FTYPE_CODE": "place", "FEATSUBTYP": "locality unbounded", "HIERARCHY": 8, "STATE": "VIC", "SCALE_USEC": "6", "PFI_CR": "2010-01-01", "UFI_CR": "2011-08-11" }, "geometry": { "type": "Point", "coordinates": [ 145.374136857998309, -37.877905865999985 ] } },
{ "type": "Feature", "properties": { "UFI": 61766, "PFI": 3096, "NAME_ID": 100751, "PLACE_NAME": "CHUM CREEK", "PLACELABEL": "Chum Creek", "FTYPE_CODE": "place", "FEATSUBTYP": "locality bounded", "HIERARCHY": 8, "STATE": "VIC", "SCALE_USEC": "6", "PFI_CR": "2010-01-01", "UFI_CR": "2011-08-11" }, "geometry": { "type": "Point", "coordinates": [ 145.488705451998896, -37.605601697999965 ] } },
{ "type": "Feature", "properties": { "UFI": 62112, "PFI": 3442, "NAME_ID": 103374, "PLACE_NAME": "WONGA PARK", "PLACELABEL": "Wonga Park", "FTYPE_CODE": "place", "FEATSUBTYP": "locality bounded", "HIERARCHY": 8, "STATE": "VIC", "SCALE_USEC": "6", "PFI_CR": "2010-01-01", "UFI_CR": "2011-08-11" }, "geometry": { "type": "Point", "coordinates": [ 145.272825890997638, -37.736773857999978 ] } },
{ "type": "Feature", "properties": { "UFI": 61572, "PFI": 2902, "NAME_ID": 100429, "PLACE_NAME": "BONBEACH", "PLACELABEL": "Bonbeach", "FTYPE_CODE": "place", "FEATSUBTYP": "locality bounded", "HIERARCHY": 8, "STATE": "VIC", "SCALE_USEC": "6", "PFI_CR": "2010-01-01", "UFI_CR": "2011-08-11" }, "geometry": { "type": "Point", "coordinates": [ 145.120459881996368, -38.061572850000026 ] } },
{ "type": "Feature", "properties": { "UFI": 61581, "PFI": 2911, "NAME_ID": 100469, "PLACE_NAME": "BOX HILL NORTH", "PLACELABEL": "Box Hill North", "FTYPE_CODE": "place", "FEATSUBTYP": "locality bounded", "HIERARCHY": 8, "STATE": "VIC", "SCALE_USEC": "6", "PFI_CR": "2010-01-01", "UFI_CR": "2011-08-11" }, "geometry": { "type": "Point", "coordinates": [ 145.120130909996334, -37.806532848000018 ] } },
{ "type": "Feature", "properties": { "UFI": 61591, "PFI": 2921, "NAME_ID": 101495, "PLACE_NAME": "HOPETOUN PARK", "PLACELABEL": "Hopetoun Park", "FTYPE_CODE": "place", "FEATSUBTYP": "locality bounded", "HIERARCHY": 9, "STATE": "VIC", "SCALE_USEC": "7", "PFI_CR": "2010-01-01", "UFI_CR": "2011-08-11" }, "geometry": { "type": "Point", "coordinates": [ 144.500676079983094, -37.695337456000239 ] } },
{ "type": "Feature", "properties": { "UFI": 61593, "PFI": 2923, "NAME_ID": 101878, "PLACE_NAME": "LONG FOREST", "PLACELABEL": "Long Forest", "FTYPE_CODE": "place", "FEATSUBTYP": "locality bounded", "HIERARCHY": 9, "STATE": "VIC", "SCALE_USEC": "7", "PFI_CR": "2010-01-01", "UFI_CR": "2011-08-11" }, "geometry": { "type": "Point", "coordinates": [ 144.508380449983406, -37.645129398000208 ] } },
{ "type": "Feature", "properties": { "UFI": 61619, "PFI": 2949, "NAME_ID": 100326, "PLACE_NAME": "BEENAK", "PLACELABEL": "Beenak", "FTYPE_CODE": "place", "FEATSUBTYP": "locality bounded", "HIERARCHY": 9, "STATE": "VIC", "SCALE_USEC": "7", "PFI_CR": "2010-01-01", "UFI_CR": "2011-08-11" }, "geometry": { "type": "Point", "coordinates": [ 145.605535907999297, -37.894080533000015 ] } },
{ "type": "Feature", "properties": { "UFI": 61620, "PFI": 2950, "NAME_ID": 101164, "PLACE_NAME": "FERNSHAW", "PLACELABEL": "Fernshaw", "FTYPE_CODE": "place", "FEATSUBTYP": "locality bounded", "HIERARCHY": 9, "STATE": "VIC", "SCALE_USEC": "7", "PFI_CR": "2010-01-01", "UFI_CR": "2011-08-11" }, "geometry": { "type": "Point", "coordinates": [ 145.604038089999193, -37.615391406 ] } },
{ "type": "Feature", "properties": { "UFI": 61621, "PFI": 2951, "NAME_ID": 101593, "PLACE_NAME": "KALLISTA", "PLACELABEL": "Kallista", "FTYPE_CODE": "place", "FEATSUBTYP": "locality bounded", "HIERARCHY": 8, "STATE": "VIC", "SCALE_USEC": "6", "PFI_CR": "2010-01-01", "UFI_CR": "2011-08-11" }, "geometry": { "type": "Point", "coordinates": [ 145.377559214998314, -37.885958934000037 ] } },
{ "type": "Feature", "properties": { "UFI": 61622, "PFI": 2952, "NAME_ID": 102744, "PLACE_NAME": "SHERBROOKE", "PLACELABEL": "Sherbrooke", "FTYPE_CODE": "place", "FEATSUBTYP": "locality bounded", "HIERARCHY": 8, "STATE": "VIC", "SCALE_USEC": "6", "PFI_CR": "2010-01-01", "UFI_CR": "2011-08-11" }, "geometry": { "type": "Point", "coordinates": [ 145.360300467998286, -37.879997873000043 ] } },
{ "type": "Feature", "properties": { "UFI": 61623, "PFI": 2953, "NAME_ID": 102010, "PLACE_NAME": "MENZIES CREEK", "PLACELABEL": "Menzies Creek", "FTYPE_CODE": "place", "FEATSUBTYP": "locality bounded", "HIERARCHY": 8, "STATE": "VIC", "SCALE_USEC": "6", "PFI_CR": "2010-01-01", "UFI_CR": "2011-08-11" }, "geometry": { "type": "Point", "coordinates": [ 145.406151614998521, -37.920869861000035 ] } },
{ "type": "Feature", "properties": { "UFI": 61624, "PFI": 2954, "NAME_ID": 102296, "PLACE_NAME": "NARRE WARREN EAST", "PLACELABEL": "Narre Warren East", "FTYPE_CODE": "place", "FEATSUBTYP": "locality bounded", "HIERARCHY": 9, "STATE": "VIC", "SCALE_USEC": "7", "PFI_CR": "2010-01-01", "UFI_CR": "2011-08-11" }, "geometry": { "type": "Point", "coordinates": [ 145.358763918998193, -37.960927641000019 ] } },
{ "type": "Feature", "properties": { "UFI": 61625, "PFI": 2955, "NAME_ID": 102105, "PLACE_NAME": "MONBULK", "PLACELABEL": "Monbulk", "FTYPE_CODE": "place", "FEATSUBTYP": "locality bounded", "HIERARCHY": 8, "STATE": "VIC", "SCALE_USEC": "6", "PFI_CR": "2010-01-01", "UFI_CR": "2011-08-11" }, "geometry": { "type": "Point", "coordinates": [ 145.408688002998502, -37.874961436000035 ] } },
{ "type": "Feature", "properties": { "UFI": 61626, "PFI": 2956, "NAME_ID": 102747, "PLACE_NAME": "SILVAN", "PLACELABEL": "Silvan", "FTYPE_CODE": "place", "FEATSUBTYP": "locality bounded", "HIERARCHY": 8, "STATE": "VIC", "SCALE_USEC": "6", "PFI_CR": "2010-01-01", "UFI_CR": "2011-08-11" }, "geometry": { "type": "Point", "coordinates": [ 145.406925282998486, -37.825663351 ] } },
{ "type": "Feature", "properties": { "UFI": 61627, "PFI": 2957, "NAME_ID": 103002, "PLACE_NAME": "THE PATCH", "PLACELABEL": "The Patch", "FTYPE_CODE": "place", "FEATSUBTYP": "locality bounded", "HIERARCHY": 9, "STATE": "VIC", "SCALE_USEC": "7", "PFI_CR": "2010-01-01", "UFI_CR": "2011-08-11" }, "geometry": { "type": "Point", "coordinates": [ 145.391906786998391, -37.891657026000011 ] } },
{ "type": "Feature", "properties": { "UFI": 61628, "PFI": 2958, "NAME_ID": 102203, "PLACE_NAME": "MOUNT TOOLEBEWONG", "PLACELABEL": "Mount Toolebewong", "FTYPE_CODE": "place", "FEATSUBTYP": "locality bounded", "HIERARCHY": 9, "STATE": "VIC", "SCALE_USEC": "7", "PFI_CR": "2010-01-01", "UFI_CR": "2011-08-11" }, "geometry": { "type": "Point", "coordinates": [ 145.565738933999114, -37.722954171 ] } },
{ "type": "Feature", "properties": { "UFI": 61629, "PFI": 2959, "NAME_ID": 103494, "PLACE_NAME": "YERING", "PLACELABEL": "Yering", "FTYPE_CODE": "place", "FEATSUBTYP": "locality bounded", "HIERARCHY": 9, "STATE": "VIC", "SCALE_USEC": "7", "PFI_CR": "2010-01-01", "UFI_CR": "2011-08-11" }, "geometry": { "type": "Point", "coordinates": [ 145.381097337998312, -37.672378457000022 ] } },
{ "type": "Feature", "properties": { "UFI": 61854, "PFI": 3184, "NAME_ID": 100217, "PLACE_NAME": "AVONSLEIGH", "PLACELABEL": "Avonsleigh", "FTYPE_CODE": "place", "FEATSUBTYP": "locality bounded", "HIERARCHY": 8, "STATE": "VIC", "SCALE_USEC": "6", "PFI_CR": "2010-01-01", "UFI_CR": "2011-08-11" }, "geometry": { "type": "Point", "coordinates": [ 145.472409518998774, -37.920508473000041 ] } },
{ "type": "Feature", "properties": { "UFI": 61855, "PFI": 3185, "NAME_ID": 100765, "PLACE_NAME": "CLEMATIS", "PLACELABEL": "Clematis", "FTYPE_CODE": "place", "FEATSUBTYP": "locality bounded", "HIERARCHY": 9, "STATE": "VIC", "SCALE_USEC": "7", "PFI_CR": "2010-01-01", "UFI_CR": "2011-08-11" }, "geometry": { "type": "Point", "coordinates": [ 145.422747301998555, -37.929586212 ] } },
{ "type": "Feature", "properties": { "UFI": 61856, "PFI": 3186, "NAME_ID": 100969, "PLACE_NAME": "DEWHURST", "PLACELABEL": "Dewhurst", "FTYPE_CODE": "place", "FEATSUBTYP": "locality bounded", "HIERARCHY": 9, "STATE": "VIC", "SCALE_USEC": "7", "PFI_CR": "2010-01-01", "UFI_CR": "2011-08-11" }, "geometry": { "type": "Point", "coordinates": [ 145.464357163998756, -37.980243040000019 ] } },
{ "type": "Feature", "properties": { "UFI": 61858, "PFI": 3188, "NAME_ID": 102422, "PLACE_NAME": "OFFICER SOUTH", "PLACELABEL": "Officer South", "FTYPE_CODE": "place", "FEATSUBTYP": "locality bounded", "HIERARCHY": 9, "STATE": "VIC", "SCALE_USEC": "7", "PFI_CR": "2010-01-01", "UFI_CR": "2011-08-11" }, "geometry": { "type": "Point", "coordinates": [ 145.42457668099857, -38.11389412900003 ] } },
{ "type": "Feature", "properties": { "UFI": 61860, "PFI": 3190, "NAME_ID": 100592, "PLACE_NAME": "BURNSIDE", "PLACELABEL": "Burnside", "FTYPE_CODE": "place", "FEATSUBTYP": "locality bounded", "HIERARCHY": 9, "STATE": "VIC", "SCALE_USEC": "7", "PFI_CR": "2010-01-01", "UFI_CR": "2011-08-11" }, "geometry": { "type": "Point", "coordinates": [ 144.75483809599055, -37.759269473000089 ] } },
{ "type": "Feature", "properties": { "UFI": 65278, "PFI": 3191, "NAME_ID": 101485, "PLACE_NAME": "HILLSIDE (GREATER MELBOURNE)", "PLACELABEL": "Hillside", "FTYPE_CODE": "place", "FEATSUBTYP": "locality bounded", "HIERARCHY": 9, "STATE": "VIC", "SCALE_USEC": "7", "PFI_CR": "2010-01-01", "UFI_CR": "2013-12-13" }, "geometry": { "type": "Point", "coordinates": [ 144.738337288990124, -37.685979888000084 ] } },
{ "type": "Feature", "properties": { "UFI": 61863, "PFI": 3193, "NAME_ID": 102970, "PLACE_NAME": "TAYLORS HILL", "PLACELABEL": "Taylors Hill", "FTYPE_CODE": "place", "FEATSUBTYP": "locality bounded", "HIERARCHY": 9, "STATE": "VIC", "SCALE_USEC": "7", "PFI_CR": "2010-01-01", "UFI_CR": "2011-08-11" }, "geometry": { "type": "Point", "coordinates": [ 144.753668466990462, -37.71231924000007 ] } },
{ "type": "Feature", "properties": { "UFI": 61864, "PFI": 3194, "NAME_ID": 100946, "PLACE_NAME": "DELAHEY", "PLACELABEL": "Delahey", "FTYPE_CODE": "place", "FEATSUBTYP": "locality bounded", "HIERARCHY": 9, "STATE": "VIC", "SCALE_USEC": "7", "PFI_CR": "2010-01-01", "UFI_CR": "2011-08-11" }, "geometry": { "type": "Point", "coordinates": [ 144.774003704990946, -37.718555482000056 ] } },
{ "type": "Feature", "properties": { "UFI": 61869, "PFI": 3199, "NAME_ID": 102519, "PLACE_NAME": "POINT WILSON", "PLACELABEL": "Point Wilson", "FTYPE_CODE": "place", "FEATSUBTYP": "locality bounded", "HIERARCHY": 9, "STATE": "VIC", "SCALE_USEC": "7", "PFI_CR": "2010-01-01", "UFI_CR": "2011-08-11" }, "geometry": { "type": "Point", "coordinates": [ 144.504543587983278, -38.082489891000371 ] } },
{ "type": "Feature", "properties": { "UFI": 61873, "PFI": 3203, "NAME_ID": 101259, "PLACE_NAME": "GLADSTONE PARK", "PLACELABEL": "Gladstone Park", "FTYPE_CODE": "place", "FEATSUBTYP": "locality bounded", "HIERARCHY": 9, "STATE": "VIC", "SCALE_USEC": "7", "PFI_CR": "2010-01-01", "UFI_CR": "2011-08-11" }, "geometry": { "type": "Point", "coordinates": [ 144.884789771993155, -37.688423614 ] } },
{ "type": "Feature", "properties": { "UFI": 61874, "PFI": 3204, "NAME_ID": 101550, "PLACE_NAME": "JACANA", "PLACELABEL": "Jacana", "FTYPE_CODE": "place", "FEATSUBTYP": "locality bounded", "HIERARCHY": 9, "STATE": "VIC", "SCALE_USEC": "7", "PFI_CR": "2010-01-01", "UFI_CR": "2011-08-11" }, "geometry": { "type": "Point", "coordinates": [ 144.911871842993605, -37.683017258000021 ] } },
{ "type": "Feature", "properties": { "UFI": 61875, "PFI": 3205, "NAME_ID": 102002, "PLACE_NAME": "MELBOURNE AIRPORT", "PLACELABEL": "Melbourne Airport", "FTYPE_CODE": "place", "FEATSUBTYP": "locality bounded", "HIERARCHY": 9, "STATE": "VIC", "SCALE_USEC": "7", "PFI_CR": "2010-01-01", "UFI_CR": "2011-08-11" }, "geometry": { "type": "Point", "coordinates": [ 144.851339712992512, -37.670967704000049 ] } },
{ "type": "Feature", "properties": { "UFI": 61876, "PFI": 3206, "NAME_ID": 102662, "PLACE_NAME": "ROXBURGH PARK", "PLACELABEL": "Roxburgh Park", "FTYPE_CODE": "place", "FEATSUBTYP": "locality bounded", "HIERARCHY": 9, "STATE": "VIC", "SCALE_USEC": "7", "PFI_CR": "2010-01-01", "UFI_CR": "2011-08-11" }, "geometry": { "type": "Point", "coordinates": [ 144.929902736993853, -37.631367417000028 ] } },
{ "type": "Feature", "properties": { "UFI": 61877, "PFI": 3207, "NAME_ID": 103330, "PLACE_NAME": "WILDWOOD", "PLACELABEL": "Wildwood", "FTYPE_CODE": "place", "FEATSUBTYP": "locality bounded", "HIERARCHY": 9, "STATE": "VIC", "SCALE_USEC": "7", "PFI_CR": "2010-01-01", "UFI_CR": "2011-08-11" }, "geometry": { "type": "Point", "coordinates": [ 144.787422708991301, -37.57820104900005 ] } },
{ "type": "Feature", "properties": { "UFI": 61878, "PFI": 3208, "NAME_ID": 100797, "PLACE_NAME": "COCOROC", "PLACELABEL": "Cocoroc", "FTYPE_CODE": "place", "FEATSUBTYP": "locality bounded", "HIERARCHY": 9, "STATE": "VIC", "SCALE_USEC": "7", "PFI_CR": "2010-01-01", "UFI_CR": "2011-08-11" }, "geometry": { "type": "Point", "coordinates": [ 144.621901953987106, -37.976145998000192 ] } },
{ "type": "Feature", "properties": { "UFI": 61879, "PFI": 3209, "NAME_ID": 101943, "PLACE_NAME": "MAMBOURIN", "PLACELABEL": "Mambourin", "FTYPE_CODE": "place", "FEATSUBTYP": "locality bounded", "HIERARCHY": 9, "STATE": "VIC", "SCALE_USEC": "7", "PFI_CR": "2010-01-01", "UFI_CR": "2011-08-11" }, "geometry": { "type": "Point", "coordinates": [ 144.546817506984695, -37.905011043000258 ] } },
{ "type": "Feature", "properties": { "UFI": 61880, "PFI": 3210, "NAME_ID": 102515, "PLACE_NAME": "POINT COOK", "PLACELABEL": "Point Cook", "FTYPE_CODE": "place", "FEATSUBTYP": "locality bounded", "HIERARCHY": 9, "STATE": "VIC", "SCALE_USEC": "7", "PFI_CR": "2010-01-01", "UFI_CR": "2011-08-11" }, "geometry": { "type": "Point", "coordinates": [ 144.763825120990788, -37.892962882000091 ] } },